{"type":"FeatureCollection","features":[
{"type":"Feature","properties":{"Name":"臺北市市立景美女中","description\/名稱":"臺北市市立景美女中","description\/地址":"臺北市木新路三段312號","description\/電話":"2936-8847#201","timestamp":"","begin":"","end":"","altitudeMode":"","tessellate":"-1","extrude":"0","visibility":"-1","drawOrder":"","icon":"","_id":42542288},"geometry":{"type":"Point","coordinates":[121.55620997431,24.980713448249]}}
,
{"type":"Feature","properties":{"Name":"再興高中","description\/名稱":"再興高中","description\/地址":"文山區興隆路4段2號","description\/電話":"2936-3710#102","timestamp":"","begin":"","end":"","altitudeMode":"","tessellate":"-1","extrude":"0","visibility":"-1","drawOrder":"","icon":"","_id":42542289},"geometry":{"type":"Point","coordinates":[121.55909395105,24.990419728026]}}
,
{"type":"Feature","properties":{"Name":"臺北市信義區福德國民小學","description\/名稱":"臺北市信義區福德國民小學","description\/地址":"臺北市信義區福德街253號","description\/電話":"27281344","timestamp":"","begin":"","end":"","altitudeMode":"","tessellate":"-1","extrude":"0","visibility":"-1","drawOrder":"","icon":"","_id":42542290},"geometry":{"type":"Point","coordinates":[121.58651120982,25.038875390941]}}
,
{"type":"Feature","properties":{"Name":"臺北市大安區金華國民小學","description\/名稱":"臺北市大安區金華國民小學","description\/地址":"臺北市大安區愛國東路79巷11號","description\/電話":"23918478","timestamp":"","begin":"","end":"","altitudeMode":"","tessellate":"-1","extrude":"0","visibility":"-1","drawOrder":"","icon":"","_id":42542291},"geometry":{"type":"Point","coordinates":[121.52774287368,25.032224046343]}}
,
{"type":"Feature","properties":{"Name":"臺北市中山區長安國民小學","description\/名稱":"臺北市中山區長安國民小學","description\/地址":"臺北市中山區吉林路15號","description\/電話":"25211589","timestamp":"","begin":"","end":"","altitudeMode":"","tessellate":"-1","extrude":"0","visibility":"-1","drawOrder":"","icon":"","_id":42542292},"geometry":{"type":"Point","coordinates":[121.53016488854,25.049731457717]}}
,
{"type":"Feature","properties":{"Name":"臺北市萬華區福星國民小學","description\/名稱":"臺北市萬華區福星國民小學","description\/地址":"臺北市萬華區中華路一段66號","description\/電話":"23751574","timestamp":"","begin":"","end":"","altitudeMode":"","tessellate":"-1","extrude":"0","visibility":"-1","drawOrder":"","icon":"","_id":42542293},"geometry":{"type":"Point","coordinates":[121.50888848839,25.046317176262]}}
,
{"type":"Feature","properties":{"Name":"臺北市文山區博嘉國民小學","description\/名稱":"臺北市文山區博嘉國民小學","description\/地址":"臺北市文山區木柵路四段159巷14之1號","description\/電話":"22300430","timestamp":"","begin":"","end":"","altitudeMode":"","tessellate":"-1","extrude":"0","visibility":"-1","drawOrder":"","icon":"","_id":42542294},"geometry":{"type":"Point","coordinates":[121.5757928053,25.002054307209]}}
,
{"type":"Feature","properties":{"Name":"臺北市內湖區麗湖國民小學","description\/名稱":"臺北市內湖區麗湖國民小學","description\/地址":"臺北市內湖區金湖路363巷8號","description\/電話":"2634-3855","timestamp":"","begin":"","end":"","altitudeMode":"","tessellate":"-1","extrude":"0","visibility":"-1","drawOrder":"","icon":"","_id":42542295},"geometry":{"type":"Point","coordinates":[121.60125997838,25.073049046215]}}
,
{"type":"Feature","properties":{"Name":"臺北市士林區百齡國民小學","description\/名稱":"臺北市士林區百齡國民小學","description\/地址":"臺北市士林區福港街二０五號","description\/電話":"28831163","timestamp":"","begin":"","end":"","altitudeMode":"","tessellate":"-1","extrude":"0","visibility":"-1","drawOrder":"","icon":"","_id":42542296},"geometry":{"type":"Point","coordinates":[121.51780638664,25.086177493671]}}
,
{"type":"Feature","properties":{"Name":"臺北市士林區芝山國民小學","description\/名稱":"臺北市士林區芝山國民小學","description\/地址":"臺北市士林區德行東路285號","description\/電話":"28340393","timestamp":"","begin":"","end":"","altitudeMode":"","tessellate":"-1","extrude":"0","visibility":"-1","drawOrder":"","icon":"","_id":42542297},"geometry":{"type":"Point","coordinates":[121.53641140081,25.110357748835]}}
,
{"type":"Feature","properties":{"Name":"臺北市北投區清江國民小學","description\/名稱":"臺北市北投區清江國民小學","description\/地址":"臺北市北投區公館路220號","description\/電話":"28921839","timestamp":"","begin":"","end":"","altitudeMode":"","tessellate":"-1","extrude":"0","visibility":"-1","drawOrder":"","icon":"","_id":42542298},"geometry":{"type":"Point","coordinates":[121.50765488145,25.126843938998]}}
,
{"type":"Feature","properties":{"Name":"臺北市北投區湖山國民小學","description\/名稱":"臺北市北投區湖山國民小學","description\/地址":"臺北市北投區湖底路11號","description\/電話":"28612505","timestamp":"","begin":"","end":"","altitudeMode":"","tessellate":"-1","extrude":"0","visibility":"-1","drawOrder":"","icon":"","_id":42542299},"geometry":{"type":"Point","coordinates":[121.53547496947,25.149956344503]}}
,
{"type":"Feature","properties":{"Name":"臺北市北投區義方國民小學","description\/名稱":"臺北市北投區義方國民小學","description\/地址":"臺北市北投區開明街71號","description\/電話":"28927343","timestamp":"","begin":"","end":"","altitudeMode":"","tessellate":"-1","extrude":"0","visibility":"-1","drawOrder":"","icon":"","_id":42542300},"geometry":{"type":"Point","coordinates":[121.50231866171,25.141443623929]}}
,
{"type":"Feature","properties":{"Name":"臺北市北投區私立薇閣國民小學","description\/名稱":"臺北市北投區私立薇閣國民小學","description\/地址":"臺北市北投區育仁路106號","description\/電話":"28947665","timestamp":"","begin":"","end":"","altitudeMode":"","tessellate":"-1","extrude":"0","visibility":"-1","drawOrder":"","icon":"","_id":42542301},"geometry":{"type":"Point","coordinates":[121.50085526482,25.136144927436]}}
,
{"type":"Feature","properties":{"Name":"民權幼稚園","description\/名稱":"民權幼稚園","description\/地址":"富錦街562巷13號1樓","description\/電話":"27689868","timestamp":"","begin":"","end":"","altitudeMode":"","tessellate":"-1","extrude":"0","visibility":"-1","drawOrder":"","icon":"","_id":42542302},"geometry":{"type":"Point","coordinates":[121.56754937744,25.062110483227]}}
,
{"type":"Feature","properties":{"Name":"三民幼稚園","description\/名稱":"三民幼稚園","description\/地址":"民生東路5段69巷2弄39號1樓","description\/電話":"27651882","timestamp":"","begin":"","end":"","altitudeMode":"","tessellate":"-1","extrude":"0","visibility":"-1","drawOrder":"","icon":"","_id":42542303},"geometry":{"type":"Point","coordinates":[121.56019574908,25.059486540917]}}
,
{"type":"Feature","properties":{"Name":"英童幼稚園","description\/名稱":"英童幼稚園","description\/地址":"新中街52號1樓","description\/電話":"27689234","timestamp":"","begin":"","end":"","altitudeMode":"","tessellate":"-1","extrude":"0","visibility":"-1","drawOrder":"","icon":"","_id":42542304},"geometry":{"type":"Point","coordinates":[121.56036823329,25.06127935773]}}
,
{"type":"Feature","properties":{"Name":"慶豐紀念幼稚園","description\/名稱":"慶豐紀念幼稚園","description\/地址":"永吉路120巷106號","description\/電話":"27669977","timestamp":"","begin":"","end":"","altitudeMode":"","tessellate":"-1","extrude":"0","visibility":"-1","drawOrder":"","icon":"","_id":42542305},"geometry":{"type":"Point","coordinates":[121.57006040749,25.041218072582]}}
,
{"type":"Feature","properties":{"Name":"傑生幼稚園","description\/名稱":"傑生幼稚園","description\/地址":"基隆路1段37巷5號","description\/電話":"27615179","timestamp":"","begin":"","end":"","altitudeMode":"","tessellate":"-1","extrude":"0","visibility":"-1","drawOrder":"","icon":"","_id":42542306},"geometry":{"type":"Point","coordinates":[121.56875613188,25.046143675068]}}
,
{"type":"Feature","properties":{"Name":"臺北市私立天主教附設三德幼稚園","description\/名稱":"臺北市私立天主教附設三德幼稚園","description\/地址":"松仁路228巷15號1樓","description\/電話":"27221062","timestamp":"","begin":"","end":"","altitudeMode":"","tessellate":"-1","extrude":"0","visibility":"-1","drawOrder":"","icon":"","_id":42542307},"geometry":{"type":"Point","coordinates":[121.56781705053,25.024860611495]}}
,
{"type":"Feature","properties":{"Name":"財團法人私立蒙特梭利幼稚園","description\/名稱":"財團法人私立蒙特梭利幼稚園","description\/地址":"新生南路1段103巷27號1樓","description\/電話":"27529503","timestamp":"","begin":"","end":"","altitudeMode":"","tessellate":"-1","extrude":"0","visibility":"-1","drawOrder":"","icon":"","_id":42542308},"geometry":{"type":"Point","coordinates":[121.53529053069,25.04077892633]}}
,
{"type":"Feature","properties":{"Name":"實踐大學附設幼稚園","description\/名稱":"實踐大學附設幼稚園","description\/地址":"大直街70號1樓","description\/電話":"25336078","timestamp":"","begin":"","end":"","altitudeMode":"","tessellate":"-1","extrude":"0","visibility":"-1","drawOrder":"","icon":"","_id":42542309},"geometry":{"type":"Point","coordinates":[121.54621514004,25.083558467843]}}
,
{"type":"Feature","properties":{"Name":"靜心國民小學附設幼稚園","description\/名稱":"靜心國民小學附設幼稚園","description\/地址":"興隆路2段46號","description\/電話":"29323118","timestamp":"","begin":"","end":"","altitudeMode":"","tessellate":"-1","extrude":"0","visibility":"-1","drawOrder":"","icon":"","_id":42542310},"geometry":{"type":"Point","coordinates":[121.54665374434,24.998933288868]}}
,
{"type":"Feature","properties":{"Name":"佳育幼稚園","description\/名稱":"佳育幼稚園","description\/地址":"木柵路3段102巷15號","description\/電話":"29391465","timestamp":"","begin":"","end":"","altitudeMode":"","tessellate":"-1","extrude":"0","visibility":"-1","drawOrder":"","icon":"","_id":42542311},"geometry":{"type":"Point","coordinates":[121.5678081304,24.987751024838]}}
,
{"type":"Feature","properties":{"Name":"潭美幼稚園","description\/名稱":"潭美幼稚園","description\/地址":"新明路312巷2號1樓","description\/電話":"27910442","timestamp":"","begin":"","end":"","altitudeMode":"","tessellate":"-1","extrude":"0","visibility":"-1","drawOrder":"","icon":"","_id":42542312},"geometry":{"type":"Point","coordinates":[121.58171557508,25.055679526375]}}
,
{"type":"Feature","properties":{"Name":"雙連幼稚園","description\/名稱":"雙連幼稚園","description\/地址":"承德路7段221號","description\/電話":"28228444","timestamp":"","begin":"","end":"","altitudeMode":"","tessellate":"-1","extrude":"0","visibility":"-1","drawOrder":"","icon":"","_id":42542313},"geometry":{"type":"Point","coordinates":[121.50526902525,25.115071834997]}}
,
{"type":"Feature","properties":{"Name":"臺北市私立喬治工商","description\/名稱":"臺北市私立喬治工商","description\/地址":"臺北市基隆路二段172號","description\/電話":"2736-6515","timestamp":"","begin":"","end":"","altitudeMode":"","tessellate":"-1","extrude":"0","visibility":"-1","drawOrder":"","icon":"","_id":42542314},"geometry":{"type":"Point","coordinates":[121.55475305669,25.026530179734]}}
,
{"type":"Feature","properties":{"Name":"臺北市私立景文高中","description\/名稱":"臺北市私立景文高中","description\/地址":"臺北市保儀路127號","description\/電話":"2939-0310","timestamp":"","begin":"","end":"","altitudeMode":"","tessellate":"-1","extrude":"0","visibility":"-1","drawOrder":"","icon":"","_id":42542315},"geometry":{"type":"Point","coordinates":[121.56737592382,24.985340928145]}}
,
{"type":"Feature","properties":{"Name":"臺北市市立木柵高工","description\/名稱":"臺北市市立木柵高工","description\/地址":"臺北市木柵路四段77號","description\/電話":"2230-0506","timestamp":"","begin":"","end":"","altitudeMode":"","tessellate":"-1","extrude":"0","visibility":"-1","drawOrder":"","icon":"","_id":42542316},"geometry":{"type":"Point","coordinates":[121.5718587879,24.995860448256]}}
,
{"type":"Feature","properties":{"Name":"中山國中","description\/名稱":"中山國中","description\/地址":"臺北市松山區復興北路361巷7號","description\/電話":"2712-6701","timestamp":"","begin":"","end":"","altitudeMode":"","tessellate":"-1","extrude":"0","visibility":"-1","drawOrder":"","icon":"","_id":42542317},"geometry":{"type":"Point","coordinates":[121.54551399871,25.060511787128]}}
,
{"type":"Feature","properties":{"Name":"臺北市中山區吉林國民小學","description\/名稱":"臺北市中山區吉林國民小學","description\/地址":"臺北市中山區長春路116號","description\/電話":"25618868","timestamp":"","begin":"","end":"","altitudeMode":"","tessellate":"-1","extrude":"0","visibility":"-1","drawOrder":"","icon":"","_id":42542318},"geometry":{"type":"Point","coordinates":[121.5296125014,25.054689644927]}}
,
{"type":"Feature","properties":{"Name":"臺北市文山區實踐國民小學","description\/名稱":"臺北市文山區實踐國民小學","description\/地址":"臺北市文山區忠順街一段4號","description\/電話":"29363349","timestamp":"","begin":"","end":"","altitudeMode":"","tessellate":"-1","extrude":"0","visibility":"-1","drawOrder":"","icon":"","_id":42542319},"geometry":{"type":"Point","coordinates":[121.55754534005,24.983637773279]}}
,
{"type":"Feature","properties":{"Name":"臺北市北投區洲美國民小學","description\/名稱":"臺北市北投區洲美國民小學","description\/地址":"臺北市北投區洲美街185號","description\/電話":"2831-6084","timestamp":"","begin":"","end":"","altitudeMode":"","tessellate":"-1","extrude":"0","visibility":"-1","drawOrder":"","icon":"","_id":42542320},"geometry":{"type":"Point","coordinates":[121.50269193355,25.100809263057]}}
,
{"type":"Feature","properties":{"Name":"沛德幼稚園","description\/名稱":"沛德幼稚園","description\/地址":"和平東路3段391巷48號1樓","description\/電話":"27356095","timestamp":"","begin":"","end":"","altitudeMode":"","tessellate":"-1","extrude":"0","visibility":"-1","drawOrder":"","icon":"","_id":42542321},"geometry":{"type":"Point","coordinates":[121.55915464564,25.0207672685]}}
,
{"type":"Feature","properties":{"Name":"立人高中","description\/名稱":"立人高中","description\/地址":"萬華區桂林路171號","description\/電話":"2311-3423","timestamp":"","begin":"","end":"","altitudeMode":"","tessellate":"-1","extrude":"0","visibility":"-1","drawOrder":"","icon":"","_id":42542322},"geometry":{"type":"Point","coordinates":[121.49644511481,25.038720581114]}}
,
{"type":"Feature","properties":{"Name":"格致國中","description\/名稱":"格致國中","description\/地址":"臺北市士林區仰德大道4段75號","description\/電話":"2861-0079","timestamp":"","begin":"","end":"","altitudeMode":"","tessellate":"-1","extrude":"0","visibility":"-1","drawOrder":"","icon":"","_id":42542323},"geometry":{"type":"Point","coordinates":[121.54678900792,25.131081602416]}}
,
{"type":"Feature","properties":{"Name":"臺北市萬華區萬大國民小學","description\/名稱":"臺北市萬華區萬大國民小學","description\/地址":"臺北市萬華區萬大路346號","description\/電話":"23019125","timestamp":"","begin":"","end":"","altitudeMode":"","tessellate":"-1","extrude":"0","visibility":"-1","drawOrder":"","icon":"","_id":42542324},"geometry":{"type":"Point","coordinates":[121.49932858741,25.022952615532]}}
,
{"type":"Feature","properties":{"Name":"臺北市士林區陽明山國民小","description\/名稱":"臺北市士林區陽明山國民小","description\/地址":"臺北市士林區仰德大道三段61號","description\/電話":"28618190","timestamp":"","begin":"","end":"","altitudeMode":"","tessellate":"-1","extrude":"0","visibility":"-1","drawOrder":"","icon":"","_id":42542325},"geometry":{"type":"Point","coordinates":[121.55290210394,25.119798321385]}}
,
{"type":"Feature","properties":{"Name":"臺北市士林區三玉國民小學","description\/名稱":"臺北市士林區三玉國民小學","description\/地址":"臺北市士林區天母東路116號","description\/電話":"28741607","timestamp":"","begin":"","end":"","altitudeMode":"","tessellate":"-1","extrude":"0","visibility":"-1","drawOrder":"","icon":"","_id":42542326},"geometry":{"type":"Point","coordinates":[121.53730415821,25.117967157625]}}
,
{"type":"Feature","properties":{"Name":"曉星幼稚園","description\/名稱":"曉星幼稚園","description\/地址":"延吉街254號1樓","description\/電話":"27033211","timestamp":"","begin":"","end":"","altitudeMode":"","tessellate":"-1","extrude":"0","visibility":"-1","drawOrder":"","icon":"","_id":42542327},"geometry":{"type":"Point","coordinates":[121.55636948019,25.034420554599]}}
,
{"type":"Feature","properties":{"Name":"文德女中","description\/名稱":"文德女中","description\/地址":"內湖區成功路3段70號","description\/電話":"2790-4570#223","timestamp":"","begin":"","end":"","altitudeMode":"","tessellate":"-1","extrude":"0","visibility":"-1","drawOrder":"","icon":"","_id":42542328},"geometry":{"type":"Point","coordinates":[121.58973430811,25.07755008667]}}
,
{"type":"Feature","properties":{"Name":"臺北市中山區長春國民小學","description\/名稱":"臺北市中山區長春國民小學","description\/地址":"臺北市中山區長春路165號","description\/電話":"25065860","timestamp":"","begin":"","end":"","altitudeMode":"","tessellate":"-1","extrude":"0","visibility":"-1","drawOrder":"","icon":"","_id":42542329},"geometry":{"type":"Point","coordinates":[121.53386422327,25.05492002088]}}
,
{"type":"Feature","properties":{"Name":"臺北市北投區文化國民小學","description\/名稱":"臺北市北投區文化國民小學","description\/地址":"臺北市北投區文化三路一號","description\/電話":"28961238","timestamp":"","begin":"","end":"","altitudeMode":"","tessellate":"-1","extrude":"0","visibility":"-1","drawOrder":"","icon":"","_id":42542330},"geometry":{"type":"Point","coordinates":[121.496659916,25.137061621758]}}
,
{"type":"Feature","properties":{"Name":"志華幼稚園","description\/名稱":"志華幼稚園","description\/地址":"信義路6段26巷5號","description\/電話":"27265929","timestamp":"","begin":"","end":"","altitudeMode":"","tessellate":"-1","extrude":"0","visibility":"-1","drawOrder":"","icon":"","_id":42542331},"geometry":{"type":"Point","coordinates":[121.57565280826,25.033741190163]}}
,
{"type":"Feature","properties":{"Name":"宛的弗幼稚園（附設兒童托育中心）","description\/名稱":"宛的弗幼稚園（附設兒童托育中心）","description\/地址":"興隆路4段165巷46號48號1樓","description\/電話":"29365809","timestamp":"","begin":"","end":"","altitudeMode":"","tessellate":"-1","extrude":"0","visibility":"-1","drawOrder":"","icon":"","_id":42542332},"geometry":{"type":"Point","coordinates":[121.56395923647,24.984254961874]}}
,
{"type":"Feature","properties":{"Name":"心惠幼稚園","description\/名稱":"心惠幼稚園","description\/地址":"麗山街62巷18弄2號1樓","description\/電話":"26270022","timestamp":"","begin":"","end":"","altitudeMode":"","tessellate":"-1","extrude":"0","visibility":"-1","drawOrder":"","icon":"","_id":42542333},"geometry":{"type":"Point","coordinates":[121.57891426377,25.081318238497]}}
,
{"type":"Feature","properties":{"Name":"全能幼稚園","description\/名稱":"全能幼稚園","description\/地址":"樟新街26號","description\/電話":"29367367","timestamp":"","begin":"","end":"","altitudeMode":"","tessellate":"-1","extrude":"0","visibility":"-1","drawOrder":"","icon":"","_id":42542334},"geometry":{"type":"Point","coordinates":[121.55520599052,24.978934768485]}}
,
{"type":"Feature","properties":{"Name":"牛頓幼稚園","description\/名稱":"牛頓幼稚園","description\/地址":"大直街20巷15號1樓","description\/電話":"25334008","timestamp":"","begin":"","end":"","altitudeMode":"","tessellate":"-1","extrude":"0","visibility":"-1","drawOrder":"","icon":"","_id":42542335},"geometry":{"type":"Point","coordinates":[121.54530813231,25.081295867361]}}
,
{"type":"Feature","properties":{"Name":"臺北市中山區中正國民小學","description\/名稱":"臺北市中山區中正國民小學","description\/地址":"臺北市中山區龍江路62號","description\/電話":"25052479","timestamp":"","begin":"","end":"","altitudeMode":"","tessellate":"-1","extrude":"0","visibility":"-1","drawOrder":"","icon":"","_id":42542336},"geometry":{"type":"Point","coordinates":[121.5402450589,25.050594753669]}}
,
{"type":"Feature","properties":{"Name":"臺北市市立啟聰學校","description\/名稱":"臺北市市立啟聰學校","description\/地址":"臺北市重慶北路三段320號","description\/電話":"2592-4446","timestamp":"","begin":"","end":"","altitudeMode":"","tessellate":"-1","extrude":"0","visibility":"-1","drawOrder":"","icon":"","_id":42542337},"geometry":{"type":"Point","coordinates":[121.5135707999,25.074669500032]}}
,
{"type":"Feature","properties":{"Name":"新民國民小學 附設幼稚園","description\/名稱":"新民國民小學 附設幼稚園","description\/地址":"辛亥路1段113號1樓","description\/電話":"23630450","timestamp":"","begin":"","end":"","altitudeMode":"","tessellate":"-1","extrude":"0","visibility":"-1","drawOrder":"","icon":"","_id":42542338},"geometry":{"type":"Point","coordinates":[121.53184372864,25.022357162412]}}
,
{"type":"Feature","properties":{"Name":"仁愛國中","description\/名稱":"仁愛國中","description\/地址":"臺北市大安區仁愛路4段130號","description\/電話":"2325-5823","timestamp":"","begin":"","end":"","altitudeMode":"","tessellate":"-1","extrude":"0","visibility":"-1","drawOrder":"","icon":"","_id":42542339},"geometry":{"type":"Point","coordinates":[121.55066387505,25.037474318415]}}
,
{"type":"Feature","properties":{"Name":"濱江國中","description\/名稱":"濱江國中","description\/地址":"臺北市中山區樂群二路262號","description\/電話":"8502-0126","timestamp":"","begin":"","end":"","altitudeMode":"","tessellate":"-1","extrude":"0","visibility":"-1","drawOrder":"","icon":"","_id":42542340},"geometry":{"type":"Point","coordinates":[121.56069650889,25.079569791129]}}
,
{"type":"Feature","properties":{"Name":"臺北市市立大直高中","description\/名稱":"臺北市市立大直高中","description\/地址":"臺北市北安路420號","description\/電話":"2533-4017#110","timestamp":"","begin":"","end":"","altitudeMode":"","tessellate":"-1","extrude":"0","visibility":"-1","drawOrder":"","icon":"","_id":42542341},"geometry":{"type":"Point","coordinates":[121.54283163399,25.07940339737]}}
,
{"type":"Feature","properties":{"Name":"靜修女中","description\/名稱":"靜修女中","description\/地址":"大安區寧夏路59號","description\/電話":"2557-4345#101","timestamp":"","begin":"","end":"","altitudeMode":"","tessellate":"-1","extrude":"0","visibility":"-1","drawOrder":"","icon":"","_id":42542342},"geometry":{"type":"Point","coordinates":[121.51535082934,25.057882393703]}}
,
{"type":"Feature","properties":{"Name":"私立奎山中學","description\/名稱":"私立奎山中學","description\/地址":"台北市北投區明德路200號","description\/電話":"2821-2009#28","timestamp":"","begin":"","end":"","altitudeMode":"","tessellate":"-1","extrude":"0","visibility":"-1","drawOrder":"","icon":"","_id":42542343},"geometry":{"type":"Point","coordinates":[121.52204566846,25.112942789971]}}
,
{"type":"Feature","properties":{"Name":"臺北市大安區古亭國民小學","description\/名稱":"臺北市大安區古亭國民小學","description\/地址":"臺北市大安區羅斯福路三段201號","description\/電話":"23637599","timestamp":"","begin":"","end":"","altitudeMode":"","tessellate":"-1","extrude":"0","visibility":"-1","drawOrder":"","icon":"","_id":42542344},"geometry":{"type":"Point","coordinates":[121.528466151,25.020644094765]}}
,
{"type":"Feature","properties":{"Name":"莒光幼稚園","description\/名稱":"莒光幼稚園","description\/地址":"舊莊街1段145巷6弄31號1樓","description\/電話":"27821776","timestamp":"","begin":"","end":"","altitudeMode":"","tessellate":"-1","extrude":"0","visibility":"-1","drawOrder":"","icon":"","_id":42542345},"geometry":{"type":"Point","coordinates":[121.62199177046,25.039537982159]}}
,
{"type":"Feature","properties":{"Name":"恕德家商 附設幼稚園","description\/名稱":"恕德家商 附設幼稚園","description\/地址":"內湖路1段353號","description\/電話":"27990346","timestamp":"","begin":"","end":"","altitudeMode":"","tessellate":"-1","extrude":"0","visibility":"-1","drawOrder":"","icon":"","_id":42542346},"geometry":{"type":"Point","coordinates":[121.56910377604,25.082314080601]}}
,
{"type":"Feature","properties":{"Name":"臺北市市立大同高中","description\/名稱":"臺北市市立大同高中","description\/地址":"臺北市長春路167號","description\/電話":"2505-4269#201","timestamp":"","begin":"","end":"","altitudeMode":"","tessellate":"-1","extrude":"0","visibility":"-1","drawOrder":"","icon":"","_id":42542347},"geometry":{"type":"Point","coordinates":[121.53508971417,25.054958385359]}}
,
{"type":"Feature","properties":{"Name":"臺北市市立南港高中","description\/名稱":"臺北市市立南港高中","description\/地址":"臺北市向陽路21號","description\/電話":"2783-7863#401","timestamp":"","begin":"","end":"","altitudeMode":"","tessellate":"-1","extrude":"0","visibility":"-1","drawOrder":"","icon":"","_id":42542348},"geometry":{"type":"Point","coordinates":[121.59502998026,25.05245703524]}}
,
{"type":"Feature","properties":{"Name":"滬江高中","description\/名稱":"滬江高中","description\/地址":"文山區羅斯福路6段336號","description\/電話":"8663-1122#205","timestamp":"","begin":"","end":"","altitudeMode":"","tessellate":"-1","extrude":"0","visibility":"-1","drawOrder":"","icon":"","_id":42542349},"geometry":{"type":"Point","coordinates":[121.53914668804,24.989754167157]}}
,
{"type":"Feature","properties":{"Name":"龍門國中","description\/名稱":"龍門國中","description\/地址":"臺北市大安區建國南路2段269號","description\/電話":"2733-0299","timestamp":"","begin":"","end":"","altitudeMode":"","tessellate":"-1","extrude":"0","visibility":"-1","drawOrder":"","icon":"","_id":42542350},"geometry":{"type":"Point","coordinates":[121.53801089117,25.0248728424]}}
,
{"type":"Feature","properties":{"Name":"龍山國中","description\/名稱":"龍山國中","description\/地址":"臺北市萬華區南寧路46號","description\/電話":"2336-2789","timestamp":"","begin":"","end":"","altitudeMode":"","tessellate":"-1","extrude":"0","visibility":"-1","drawOrder":"","icon":"","_id":42542351},"geometry":{"type":"Point","coordinates":[121.50458006618,25.036036582322]}}
,
{"type":"Feature","properties":{"Name":"蘭州國中","description\/名稱":"蘭州國中","description\/地址":"臺北市大同區大龍街187巷1號","description\/電話":"2591-8269","timestamp":"","begin":"","end":"","altitudeMode":"","tessellate":"-1","extrude":"0","visibility":"-1","drawOrder":"","icon":"","_id":42542352},"geometry":{"type":"Point","coordinates":[121.51674609911,25.069293380499]}}
,
{"type":"Feature","properties":{"Name":"私立立人國際國民中小學","description\/名稱":"私立立人國際國民中小學","description\/地址":"台北市大安區安和路二段99號","description\/電話":"2738-1188#158","timestamp":"","begin":"","end":"","altitudeMode":"","tessellate":"-1","extrude":"0","visibility":"-1","drawOrder":"","icon":"","_id":42542353},"geometry":{"type":"Point","coordinates":[121.55187333778,25.029775768688]}}
,
{"type":"Feature","properties":{"Name":"臺北市大安區龍安國民小學","description\/名稱":"臺北市大安區龍安國民小學","description\/地址":"臺北市大安區新生南路三段三十三號","description\/電話":"23637798","timestamp":"","begin":"","end":"","altitudeMode":"","tessellate":"-1","extrude":"0","visibility":"-1","drawOrder":"","icon":"","_id":42542354},"geometry":{"type":"Point","coordinates":[121.53482643058,25.023924812599]}}
,
{"type":"Feature","properties":{"Name":"臺北市中山區大佳國民小學","description\/名稱":"臺北市中山區大佳國民小學","description\/地址":"臺北市中山區濱江街107號","description\/電話":"25024356","timestamp":"","begin":"","end":"","altitudeMode":"","tessellate":"-1","extrude":"0","visibility":"-1","drawOrder":"","icon":"","_id":42542355},"geometry":{"type":"Point","coordinates":[121.53593549979,25.073274779417]}}
,
{"type":"Feature","properties":{"Name":"臺北市文山區木柵國民小學","description\/名稱":"臺北市文山區木柵國民小學","description\/地址":"臺北市文山區木柵路3段191號","description\/電話":"29399210","timestamp":"","begin":"","end":"","altitudeMode":"","tessellate":"-1","extrude":"0","visibility":"-1","drawOrder":"","icon":"","_id":42542356},"geometry":{"type":"Point","coordinates":[121.57021482079,24.990264963113]}}
,
{"type":"Feature","properties":{"Name":"臺北市大安區私立新民國民小學","description\/名稱":"臺北市大安區私立新民國民小學","description\/地址":"臺北市大安區辛亥路1段113號","description\/電話":"23625331","timestamp":"","begin":"","end":"","altitudeMode":"","tessellate":"-1","extrude":"0","visibility":"-1","drawOrder":"","icon":"","_id":42542357},"geometry":{"type":"Point","coordinates":[121.53184372864,25.022357162412]}}
,
{"type":"Feature","properties":{"Name":"臺北市文山區私立再興國民小學","description\/名稱":"臺北市文山區私立再興國民小學","description\/地址":"臺北市文山區興隆路四段二號","description\/電話":"2936-4416","timestamp":"","begin":"","end":"","altitudeMode":"","tessellate":"-1","extrude":"0","visibility":"-1","drawOrder":"","icon":"","_id":42542358},"geometry":{"type":"Point","coordinates":[121.55909395105,24.990419728026]}}
,
{"type":"Feature","properties":{"Name":"立興幼稚園","description\/名稱":"立興幼稚園","description\/地址":"龍江路342巷37號1樓","description\/電話":"25034070","timestamp":"","begin":"","end":"","altitudeMode":"","tessellate":"-1","extrude":"0","visibility":"-1","drawOrder":"","icon":"","_id":42542359},"geometry":{"type":"Point","coordinates":[121.53901408501,25.0656191321]}}
,
{"type":"Feature","properties":{"Name":"大森幼稚園","description\/名稱":"大森幼稚園","description\/地址":"環河南路2段278號","description\/電話":"23062625","timestamp":"","begin":"","end":"","altitudeMode":"","tessellate":"-1","extrude":"0","visibility":"-1","drawOrder":"","icon":"","_id":42542360},"geometry":{"type":"Point","coordinates":[121.49116040635,25.032336733352]}}
,
{"type":"Feature","properties":{"Name":"聖愛幼稚園","description\/名稱":"聖愛幼稚園","description\/地址":"育英街63號","description\/電話":"86639051","timestamp":"","begin":"","end":"","altitudeMode":"","tessellate":"-1","extrude":"0","visibility":"-1","drawOrder":"","icon":"","_id":42542361},"geometry":{"type":"Point","coordinates":[121.53865770039,24.992163229703]}}
,
{"type":"Feature","properties":{"Name":"華園幼稚園","description\/名稱":"華園幼稚園","description\/地址":"老泉街13號","description\/電話":"29393938","timestamp":"","begin":"","end":"","altitudeMode":"","tessellate":"-1","extrude":"0","visibility":"-1","drawOrder":"","icon":"","_id":42542362},"geometry":{"type":"Point","coordinates":[121.55875344163,24.97597460207]}}
,
{"type":"Feature","properties":{"Name":"東美幼稚園","description\/名稱":"東美幼稚園","description\/地址":"興南街52巷29號1樓","description\/電話":"27868833","timestamp":"","begin":"","end":"","altitudeMode":"","tessellate":"-1","extrude":"0","visibility":"-1","drawOrder":"","icon":"","_id":42542363},"geometry":{"type":"Point","coordinates":[121.60444923622,25.057031072569]}}
,
{"type":"Feature","properties":{"Name":"華泰幼稚園","description\/名稱":"華泰幼稚園","description\/地址":"大湖山莊街21巷2號","description\/電話":"27928335","timestamp":"","begin":"","end":"","altitudeMode":"","tessellate":"-1","extrude":"0","visibility":"-1","drawOrder":"","icon":"","_id":42542364},"geometry":{"type":"Point","coordinates":[121.60240835405,25.084507410312]}}
,
{"type":"Feature","properties":{"Name":"育文幼稚園","description\/名稱":"育文幼稚園","description\/地址":"尊賢街251巷23號","description\/電話":"28223583","timestamp":"","begin":"","end":"","altitudeMode":"","tessellate":"-1","extrude":"0","visibility":"-1","drawOrder":"","icon":"","_id":42542365},"geometry":{"type":"Point","coordinates":[121.50548270591,25.117452085755]}}
,
{"type":"Feature","properties":{"Name":"瑪格麗德幼稚園","description\/名稱":"瑪格麗德幼稚園","description\/地址":"吉利街164巷1弄4號1樓","description\/電話":"28215752","timestamp":"","begin":"","end":"","altitudeMode":"","tessellate":"-1","extrude":"0","visibility":"-1","drawOrder":"","icon":"","_id":42542366},"geometry":{"type":"Point","coordinates":[121.50911271736,25.118286055448]}}
,
{"type":"Feature","properties":{"Name":"臺北市私立大同高中","description\/名稱":"臺北市私立大同高中","description\/地址":"臺北市中山北路三段40號","description\/電話":"2592-5252","timestamp":"","begin":"","end":"","altitudeMode":"","tessellate":"-1","extrude":"0","visibility":"-1","drawOrder":"","icon":"","_id":42542367},"geometry":{"type":"Point","coordinates":[121.52219106847,25.066812057363]}}
,
{"type":"Feature","properties":{"Name":"臺北市私立東方工商(進修學校)","description\/名稱":"臺北市私立東方工商(進修學校)","description\/地址":"臺北市信義路四段186巷8號","description\/電話":"2755-4616","timestamp":"","begin":"","end":"","altitudeMode":"","tessellate":"-1","extrude":"0","visibility":"-1","drawOrder":"","icon":"","_id":42542368},"geometry":{"type":"Point","coordinates":[121.5514729738,25.032118083821]}}
,
{"type":"Feature","properties":{"Name":"臺北市私立協和工商","description\/名稱":"臺北市私立協和工商","description\/地址":"臺北市忠孝東路五段790巷27號","description\/電話":"2726-5775~9","timestamp":"","begin":"","end":"","altitudeMode":"","tessellate":"-1","extrude":"0","visibility":"-1","drawOrder":"","icon":"","_id":42542369},"geometry":{"type":"Point","coordinates":[121.58346272137,25.042597651107]}}
,
{"type":"Feature","properties":{"Name":"臺北市私立恕德家商","description\/名稱":"臺北市私立恕德家商","description\/地址":"臺北市內湖路一段353號","description\/電話":"2797-7503","timestamp":"","begin":"","end":"","altitudeMode":"","tessellate":"-1","extrude":"0","visibility":"-1","drawOrder":"","icon":"","_id":42542370},"geometry":{"type":"Point","coordinates":[121.56910377604,25.082314080601]}}
,
{"type":"Feature","properties":{"Name":"臺北市私立大誠中學","description\/名稱":"臺北市私立大誠中學","description\/地址":"臺北市秀明路二段175號","description\/電話":"2234-8989","timestamp":"","begin":"","end":"","altitudeMode":"","tessellate":"-1","extrude":"0","visibility":"-1","drawOrder":"","icon":"","_id":42542371},"geometry":{"type":"Point","coordinates":[121.57820039233,24.990951967885]}}
,
{"type":"Feature","properties":{"Name":"臺北市市立啟明學校","description\/名稱":"臺北市市立啟明學校","description\/地址":"臺北市忠誠路二段207巷1號","description\/電話":"2874-0670　","timestamp":"","begin":"","end":"","altitudeMode":"","tessellate":"-1","extrude":"0","visibility":"-1","drawOrder":"","icon":"","_id":42542372},"geometry":{"type":"Point","coordinates":[121.53520474017,25.116516925784]}}
,
{"type":"Feature","properties":{"Name":"臺北市文山區萬福國民小學","description\/名稱":"臺北市文山區萬福國民小學","description\/地址":"臺北市文山區羅斯福路五段170巷32號","description\/電話":"29356537","timestamp":"","begin":"","end":"","altitudeMode":"","tessellate":"-1","extrude":"0","visibility":"-1","drawOrder":"","icon":"","_id":42542373},"geometry":{"type":"Point","coordinates":[121.53672283989,25.004793478916]}}
,
{"type":"Feature","properties":{"Name":"友愛幼稚園","description\/名稱":"友愛幼稚園","description\/地址":"忠孝東路5段524巷5弄23號","description\/電話":"27285918","timestamp":"","begin":"","end":"","altitudeMode":"","tessellate":"-1","extrude":"0","visibility":"-1","drawOrder":"","icon":"","_id":42542374},"geometry":{"type":"Point","coordinates":[121.58062607988,25.040897026978]}}
,
{"type":"Feature","properties":{"Name":"信望愛幼稚園","description\/名稱":"信望愛幼稚園","description\/地址":"敦化南路2段172巷3號1樓","description\/電話":"27330444","timestamp":"","begin":"","end":"","altitudeMode":"","tessellate":"-1","extrude":"0","visibility":"-1","drawOrder":"","icon":"","_id":42542375},"geometry":{"type":"Point","coordinates":[121.54793035726,25.024067173475]}}
,
{"type":"Feature","properties":{"Name":"多多幼稚園","description\/名稱":"多多幼稚園","description\/地址":"延平北路5段245巷2號","description\/電話":"28122563","timestamp":"","begin":"","end":"","altitudeMode":"","tessellate":"-1","extrude":"0","visibility":"-1","drawOrder":"","icon":"","_id":42542376},"geometry":{"type":"Point","coordinates":[121.50941969619,25.084684968056]}}
,
{"type":"Feature","properties":{"Name":"臺北市松山區敦化國民小學","description\/名稱":"臺北市松山區敦化國民小學","description\/地址":"臺北市松山區敦化北路2號","description\/電話":"27739447","timestamp":"","begin":"","end":"","altitudeMode":"","tessellate":"-1","extrude":"0","visibility":"-1","drawOrder":"","icon":"","_id":42542377},"geometry":{"type":"Point","coordinates":[121.54852195484,25.04907587633]}}
,
{"type":"Feature","properties":{"Name":"臺北市大安區仁愛國民小學","description\/名稱":"臺北市大安區仁愛國民小學","description\/地址":"臺北市大安區安和路一段60號","description\/電話":"27081312","timestamp":"","begin":"","end":"","altitudeMode":"","tessellate":"-1","extrude":"0","visibility":"-1","drawOrder":"","icon":"","_id":42542378},"geometry":{"type":"Point","coordinates":[121.5523678499,25.035765350051]}}
,
{"type":"Feature","properties":{"Name":"榮星幼稚園","description\/名稱":"榮星幼稚園","description\/地址":"歸綏街303巷9號1樓","description\/電話":"25536699","timestamp":"","begin":"","end":"","altitudeMode":"","tessellate":"-1","extrude":"0","visibility":"-1","drawOrder":"","icon":"","_id":42542379},"geometry":{"type":"Point","coordinates":[121.50874266651,25.058688760634]}}
,
{"type":"Feature","properties":{"Name":"光仁國民小學 附設幼稚園","description\/名稱":"光仁國民小學 附設幼稚園","description\/地址":"萬大路423巷28弄2號","description\/電話":"23032874","timestamp":"","begin":"","end":"","altitudeMode":"","tessellate":"-1","extrude":"0","visibility":"-1","drawOrder":"","icon":"","_id":42542380},"geometry":{"type":"Point","coordinates":[121.49981314709,25.020842878376]}}
,
{"type":"Feature","properties":{"Name":"青青幼稚園","description\/名稱":"青青幼稚園","description\/地址":"興隆路3段206巷10弄9號1樓","description\/電話":"22306047","timestamp":"","begin":"","end":"","altitudeMode":"","tessellate":"-1","extrude":"0","visibility":"-1","drawOrder":"","icon":"","_id":42542381},"geometry":{"type":"Point","coordinates":[121.55853828335,24.997653656161]}}
,
{"type":"Feature","properties":{"Name":"臺北市北投區泉源國民小學","description\/名稱":"臺北市北投區泉源國民小學","description\/地址":"臺北市北投區東昇路34號","description\/電話":"28925970","timestamp":"","begin":"","end":"","altitudeMode":"","tessellate":"-1","extrude":"0","visibility":"-1","drawOrder":"","icon":"","_id":42542382},"geometry":{"type":"Point","coordinates":[121.52431828212,25.149178321684]}}
,
{"type":"Feature","properties":{"Name":"松江幼稚園","description\/名稱":"松江幼稚園","description\/地址":"松江路226巷12號1樓","description\/電話":"25815051","timestamp":"","begin":"","end":"","altitudeMode":"","tessellate":"-1","extrude":"0","visibility":"-1","drawOrder":"","icon":"","_id":42542383},"geometry":{"type":"Point","coordinates":[121.53237590983,25.058353860218]}}
,
{"type":"Feature","properties":{"Name":"書宜幼稚園","description\/名稱":"書宜幼稚園","description\/地址":"羅斯福路6段150巷22號1樓","description\/電話":"89318357","timestamp":"","begin":"","end":"","altitudeMode":"","tessellate":"-1","extrude":"0","visibility":"-1","drawOrder":"","icon":"","_id":42542384},"geometry":{"type":"Point","coordinates":[121.54051344468,24.995640960107]}}
,
{"type":"Feature","properties":{"Name":"臺北市市立大安高工","description\/名稱":"臺北市市立大安高工","description\/地址":"臺北市復興南路二段52號","description\/電話":"2709-1630","timestamp":"","begin":"","end":"","altitudeMode":"","tessellate":"-1","extrude":"0","visibility":"-1","drawOrder":"","icon":"","_id":42542385},"geometry":{"type":"Point","coordinates":[121.54328434369,25.031945086535]}}
,
{"type":"Feature","properties":{"Name":"臺北市私立滬江中學","description\/名稱":"臺北市私立滬江中學","description\/地址":"臺北市羅斯福路六段336號","description\/電話":"8663-1122","timestamp":"","begin":"","end":"","altitudeMode":"","tessellate":"-1","extrude":"0","visibility":"-1","drawOrder":"","icon":"","_id":42542386},"geometry":{"type":"Point","coordinates":[121.53914668804,24.989754167157]}}
,
{"type":"Feature","properties":{"Name":"臺北市市立北一女中","description\/名稱":"臺北市市立北一女中","description\/地址":"臺北市重慶南路一段165號","description\/電話":"2371-4480","timestamp":"","begin":"","end":"","altitudeMode":"","tessellate":"-1","extrude":"0","visibility":"-1","drawOrder":"","icon":"","_id":42542387},"geometry":{"type":"Point","coordinates":[121.5129967129,25.03857915035]}}
,
{"type":"Feature","properties":{"Name":"臺北市市立麗山高中","description\/名稱":"臺北市市立麗山高中","description\/地址":"臺北市環山路二段100號","description\/電話":"2657-0435#100","timestamp":"","begin":"","end":"","altitudeMode":"","tessellate":"-1","extrude":"0","visibility":"-1","drawOrder":"","icon":"","_id":42542388},"geometry":{"type":"Point","coordinates":[121.57790757983,25.08408533245]}}
,
{"type":"Feature","properties":{"Name":"臺北市文山區武功國民小學","description\/名稱":"臺北市文山區武功國民小學","description\/地址":"臺北市文山區興隆路一段68號","description\/電話":"29321013","timestamp":"","begin":"","end":"","altitudeMode":"","tessellate":"-1","extrude":"0","visibility":"-1","drawOrder":"","icon":"","_id":42542389},"geometry":{"type":"Point","coordinates":[121.54047075815,25.003862986366]}}
,
{"type":"Feature","properties":{"Name":"臺北市士林區葫蘆國民小學","description\/名稱":"臺北市士林區葫蘆國民小學","description\/地址":"臺北市士林區環河北路三段95號","description\/電話":"28113761","timestamp":"","begin":"","end":"","altitudeMode":"","tessellate":"-1","extrude":"0","visibility":"-1","drawOrder":"","icon":"","_id":42542390},"geometry":{"type":"Point","coordinates":[121.50700896371,25.083729464669]}}
,
{"type":"Feature","properties":{"Name":"臺北市北投區逸仙國民小學","description\/名稱":"臺北市北投區逸仙國民小學","description\/地址":"臺北市北投區新民路2號","description\/電話":"28924201","timestamp":"","begin":"","end":"","altitudeMode":"","tessellate":"-1","extrude":"0","visibility":"-1","drawOrder":"","icon":"","_id":42542391},"geometry":{"type":"Point","coordinates":[121.50517807894,25.138258079927]}}
,
{"type":"Feature","properties":{"Name":"德星幼稚園","description\/名稱":"德星幼稚園","description\/地址":"寧夏路27號","description\/電話":"25567150","timestamp":"","begin":"","end":"","altitudeMode":"","tessellate":"-1","extrude":"0","visibility":"-1","drawOrder":"","icon":"","_id":42542392},"geometry":{"type":"Point","coordinates":[121.51541125408,25.05600243495]}}
,
{"type":"Feature","properties":{"Name":"皇家幼稚園","description\/名稱":"皇家幼稚園","description\/地址":"榮華2路9號1樓","description\/電話":"28220869","timestamp":"","begin":"","end":"","altitudeMode":"","tessellate":"-1","extrude":"0","visibility":"-1","drawOrder":"","icon":"","_id":42542393},"geometry":{"type":"Point","coordinates":[121.52406240263,25.113183827226]}}
,
{"type":"Feature","properties":{"Name":"新金華幼稚園","description\/名稱":"新金華幼稚園","description\/地址":"忠孝東路6段370巷13號1樓","description\/電話":"27856118","timestamp":"","begin":"","end":"","altitudeMode":"","tessellate":"-1","extrude":"0","visibility":"-1","drawOrder":"","icon":"","_id":42542394},"geometry":{"type":"Point","coordinates":[121.59213178889,25.049057348669]}}
,
{"type":"Feature","properties":{"Name":"新力幼稚園","description\/名稱":"新力幼稚園","description\/地址":"文德路66巷69弄5號","description\/電話":"27987682","timestamp":"","begin":"","end":"","altitudeMode":"","tessellate":"-1","extrude":"0","visibility":"-1","drawOrder":"","icon":"","_id":42542395},"geometry":{"type":"Point","coordinates":[121.58234938455,25.076507140552]}}
,
{"type":"Feature","properties":{"Name":"育強幼稚園","description\/名稱":"育強幼稚園","description\/地址":"社正路45巷12號1樓","description\/電話":"28128829","timestamp":"","begin":"","end":"","altitudeMode":"","tessellate":"-1","extrude":"0","visibility":"-1","drawOrder":"","icon":"","_id":42542396},"geometry":{"type":"Point","coordinates":[121.50967907037,25.089603392549]}}
,
{"type":"Feature","properties":{"Name":"臺北市市立大理高中","description\/名稱":"臺北市市立大理高中","description\/地址":"臺北市長順街2號","description\/電話":"2302-6959#112","timestamp":"","begin":"","end":"","altitudeMode":"","tessellate":"-1","extrude":"0","visibility":"-1","drawOrder":"","icon":"","_id":42542397},"geometry":{"type":"Point","coordinates":[121.49127938802,25.030839272551]}}
,
{"type":"Feature","properties":{"Name":"祐德高中","description\/名稱":"祐德高中","description\/地址":"信義區忠孝東路5段790巷27號","description\/電話":"2727-8280#168","timestamp":"","begin":"","end":"","altitudeMode":"","tessellate":"-1","extrude":"0","visibility":"-1","drawOrder":"","icon":"","_id":42542398},"geometry":{"type":"Point","coordinates":[121.58346272137,25.042597651107]}}
,
{"type":"Feature","properties":{"Name":"金甌女中","description\/名稱":"金甌女中","description\/地址":"大安區杭州南路2段1號","description\/電話":"2351-6252","timestamp":"","begin":"","end":"","altitudeMode":"","tessellate":"-1","extrude":"0","visibility":"-1","drawOrder":"","icon":"","_id":42542399},"geometry":{"type":"Point","coordinates":[121.52422068946,25.034902881663]}}
,
{"type":"Feature","properties":{"Name":"士林國中","description\/名稱":"士林國中","description\/地址":"臺北市士林區中正路345號","description\/電話":"8861-3411","timestamp":"","begin":"","end":"","altitudeMode":"","tessellate":"-1","extrude":"0","visibility":"-1","drawOrder":"","icon":"","_id":42542400},"geometry":{"type":"Point","coordinates":[121.52255335677,25.094322287418]}}
,
{"type":"Feature","properties":{"Name":"臺北市松山區西松國民小學","description\/名稱":"臺北市松山區西松國民小學","description\/地址":"臺北市松山區三民路五號","description\/電話":"27662370","timestamp":"","begin":"","end":"","altitudeMode":"","tessellate":"-1","extrude":"0","visibility":"-1","drawOrder":"","icon":"","_id":42542401},"geometry":{"type":"Point","coordinates":[121.56359543019,25.052170812126]}}
,
{"type":"Feature","properties":{"Name":"臺北市萬華區老松國民小學","description\/名稱":"臺北市萬華區老松國民小學","description\/地址":"臺北市萬華區桂林路64號","description\/電話":"23042493","timestamp":"","begin":"","end":"","altitudeMode":"","tessellate":"-1","extrude":"0","visibility":"-1","drawOrder":"","icon":"","_id":42542402},"geometry":{"type":"Point","coordinates":[121.5027442961,25.038035664949]}}
,
{"type":"Feature","properties":{"Name":"臺北市文山區萬興國民小學","description\/名稱":"臺北市文山區萬興國民小學","description\/地址":"臺北市文山區秀明路二段114號","description\/電話":"29397813","timestamp":"","begin":"","end":"","altitudeMode":"","tessellate":"-1","extrude":"0","visibility":"-1","drawOrder":"","icon":"","_id":42542403},"geometry":{"type":"Point","coordinates":[121.57660755581,24.990405432461]}}
,
{"type":"Feature","properties":{"Name":"臺北市南港區南港國民小學","description\/名稱":"臺北市南港區南港國民小學","description\/地址":"臺北市南港區惠民街67號","description\/電話":"27881427","timestamp":"","begin":"","end":"","altitudeMode":"","tessellate":"-1","extrude":"0","visibility":"-1","drawOrder":"","icon":"","_id":42542404},"geometry":{"type":"Point","coordinates":[121.61040860318,25.057457083416]}}
,
{"type":"Feature","properties":{"Name":"臺北市南港區胡適國民小學","description\/名稱":"臺北市南港區胡適國民小學","description\/地址":"臺北市南港區舊莊街一段一號","description\/電話":"27882813","timestamp":"","begin":"","end":"","altitudeMode":"","tessellate":"-1","extrude":"0","visibility":"-1","drawOrder":"","icon":"","_id":42542405},"geometry":{"type":"Point","coordinates":[121.61719328812,25.042372597645]}}
,
{"type":"Feature","properties":{"Name":"臺北市內湖區內湖國民小學","description\/名稱":"臺北市內湖區內湖國民小學","description\/地址":"臺北市內湖區內湖路二段41號","description\/電話":"27991543","timestamp":"","begin":"","end":"","altitudeMode":"","tessellate":"-1","extrude":"0","visibility":"-1","drawOrder":"","icon":"","_id":42542406},"geometry":{"type":"Point","coordinates":[121.58019107702,25.079072529826]}}
,
{"type":"Feature","properties":{"Name":"臺北市內湖區東湖國民小學","description\/名稱":"臺北市內湖區東湖國民小學","description\/地址":"臺北市內湖區東湖路115號","description\/電話":"26334163","timestamp":"","begin":"","end":"","altitudeMode":"","tessellate":"-1","extrude":"0","visibility":"-1","drawOrder":"","icon":"","_id":42542407},"geometry":{"type":"Point","coordinates":[121.61576429709,25.068514139146]}}
,
{"type":"Feature","properties":{"Name":"臺北市內湖區南湖國民小學","description\/名稱":"臺北市內湖區南湖國民小學","description\/地址":"臺北市內湖區康寧路三段200號","description\/電話":"26320760","timestamp":"","begin":"","end":"","altitudeMode":"","tessellate":"-1","extrude":"0","visibility":"-1","drawOrder":"","icon":"","_id":42542408},"geometry":{"type":"Point","coordinates":[121.61182599634,25.0680610236]}}
,
{"type":"Feature","properties":{"Name":"臺北市士林區文昌國民小學","description\/名稱":"臺北市士林區文昌國民小學","description\/地址":"臺北市士林區文林路615巷20號","description\/電話":"28362943","timestamp":"","begin":"","end":"","altitudeMode":"","tessellate":"-1","extrude":"0","visibility":"-1","drawOrder":"","icon":"","_id":42542409},"geometry":{"type":"Point","coordinates":[121.52088699657,25.099588005356]}}
,
{"type":"Feature","properties":{"Name":"臺北市北投區石牌國民小學","description\/名稱":"臺北市北投區石牌國民小學","description\/地址":"臺北市北投區致遠二路80號","description\/電話":"28265257","timestamp":"","begin":"","end":"","altitudeMode":"","tessellate":"-1","extrude":"0","visibility":"-1","drawOrder":"","icon":"","_id":42542410},"geometry":{"type":"Point","coordinates":[121.51172608437,25.115660990984]}}
,
{"type":"Feature","properties":{"Name":"臺北市士林區私立華興國民小學","description\/名稱":"臺北市士林區私立華興國民小學","description\/地址":"臺北市士林區仰德大道一段101號","description\/電話":"2832-5949","timestamp":"","begin":"","end":"","altitudeMode":"","tessellate":"-1","extrude":"0","visibility":"-1","drawOrder":"","icon":"","_id":42542411},"geometry":{"type":"Point","coordinates":[121.53819014355,25.104575830056]}}
,
{"type":"Feature","properties":{"Name":"立德幼稚園(附設兒童托育中心)","description\/名稱":"立德幼稚園(附設兒童托育中心)","description\/地址":"南京東路5段123巷8弄47號","description\/電話":"27671243","timestamp":"","begin":"","end":"","altitudeMode":"","tessellate":"-1","extrude":"0","visibility":"-1","drawOrder":"","icon":"","_id":42542412},"geometry":{"type":"Point","coordinates":[121.56296555117,25.053511062155]}}
,
{"type":"Feature","properties":{"Name":"思高幼稚園","description\/名稱":"思高幼稚園","description\/地址":"民生東路3段125號","description\/電話":"27135473","timestamp":"","begin":"","end":"","altitudeMode":"","tessellate":"-1","extrude":"0","visibility":"-1","drawOrder":"","icon":"","_id":42542413},"geometry":{"type":"Point","coordinates":[121.54734343213,25.058013872003]}}
,
{"type":"Feature","properties":{"Name":"光華幼稚園","description\/名稱":"光華幼稚園","description\/地址":"慶城街16巷3號","description\/電話":"27154555","timestamp":"","begin":"","end":"","altitudeMode":"","tessellate":"-1","extrude":"0","visibility":"-1","drawOrder":"","icon":"","_id":42542414},"geometry":{"type":"Point","coordinates":[121.54587509181,25.053122303797]}}
,
{"type":"Feature","properties":{"Name":"寶血幼稚園","description\/名稱":"寶血幼稚園","description\/地址":"泰順街60巷18弄8號","description\/電話":"23631896","timestamp":"","begin":"","end":"","altitudeMode":"","tessellate":"-1","extrude":"0","visibility":"-1","drawOrder":"","icon":"","_id":42542415},"geometry":{"type":"Point","coordinates":[121.52980847712,25.022010159103]}}
,
{"type":"Feature","properties":{"Name":"德明幼稚園","description\/名稱":"德明幼稚園","description\/地址":"萬大路449巷28弄3號","description\/電話":"23073007","timestamp":"","begin":"","end":"","altitudeMode":"","tessellate":"-1","extrude":"0","visibility":"-1","drawOrder":"","icon":"","_id":42542416},"geometry":{"type":"Point","coordinates":[121.49926562444,25.020173902413]}}
,
{"type":"Feature","properties":{"Name":"惠生幼稚園","description\/名稱":"惠生幼稚園","description\/地址":"興隆路3段207巷10弄1號","description\/電話":"22308526","timestamp":"","begin":"","end":"","altitudeMode":"","tessellate":"-1","extrude":"0","visibility":"-1","drawOrder":"","icon":"","_id":42542417},"geometry":{"type":"Point","coordinates":[121.56105669501,24.994790989154]}}
,
{"type":"Feature","properties":{"Name":"惠光幼稚園","description\/名稱":"惠光幼稚園","description\/地址":"內湖路3段175號1樓","description\/電話":"27906069","timestamp":"","begin":"","end":"","altitudeMode":"","tessellate":"-1","extrude":"0","visibility":"-1","drawOrder":"","icon":"","_id":42542418},"geometry":{"type":"Point","coordinates":[121.5894934432,25.087729686912]}}
,
{"type":"Feature","properties":{"Name":"幼心幼稚園","description\/名稱":"幼心幼稚園","description\/地址":"中正路335巷18號","description\/電話":"28815581","timestamp":"","begin":"","end":"","altitudeMode":"","tessellate":"-1","extrude":"0","visibility":"-1","drawOrder":"","icon":"","_id":42542419},"geometry":{"type":"Point","coordinates":[121.52288342631,25.093808514404]}}
,
{"type":"Feature","properties":{"Name":"求真幼稚園","description\/名稱":"求真幼稚園","description\/地址":"通河東街1段166號","description\/電話":"28819781","timestamp":"","begin":"","end":"","altitudeMode":"","tessellate":"-1","extrude":"0","visibility":"-1","drawOrder":"","icon":"","_id":42542420},"geometry":{"type":"Point","coordinates":[121.51575841339,25.087885270136]}}
,
{"type":"Feature","properties":{"Name":"愛光幼稚園","description\/名稱":"愛光幼稚園","description\/地址":"重慶北路4段38號1樓","description\/電話":"28115555","timestamp":"","begin":"","end":"","altitudeMode":"","tessellate":"-1","extrude":"0","visibility":"-1","drawOrder":"","icon":"","_id":42542421},"geometry":{"type":"Point","coordinates":[121.51341683356,25.081081161819]}}
,
{"type":"Feature","properties":{"Name":"橘子蒙特梭利幼稚園","description\/名稱":"橘子蒙特梭利幼稚園","description\/地址":"知行路292巷6號","description\/電話":"28581252","timestamp":"","begin":"","end":"","altitudeMode":"","tessellate":"-1","extrude":"0","visibility":"-1","drawOrder":"","icon":"","_id":42542422},"geometry":{"type":"Point","coordinates":[121.46834768591,25.121649368378]}}
,
{"type":"Feature","properties":{"Name":"華陽園幼稚園","description\/名稱":"華陽園幼稚園","description\/地址":"大屯路11巷16號","description\/電話":"28921534","timestamp":"","begin":"","end":"","altitudeMode":"","tessellate":"-1","extrude":"0","visibility":"-1","drawOrder":"","icon":"","_id":42542423},"geometry":{"type":"Point","coordinates":[121.4997510528,25.143670072547]}}
,
{"type":"Feature","properties":{"Name":"培爾幼稚園","description\/名稱":"培爾幼稚園","description\/地址":"大屯路91巷15號","description\/電話":"28946256","timestamp":"","begin":"","end":"","altitudeMode":"","tessellate":"-1","extrude":"0","visibility":"-1","drawOrder":"","icon":"","_id":42542424},"geometry":{"type":"Point","coordinates":[121.50068761968,25.144344476501]}}
,
{"type":"Feature","properties":{"Name":"臺北市私立育達商職","description\/名稱":"臺北市私立育達商職","description\/地址":"臺北市寧安街12號","description\/電話":"2570-6767","timestamp":"","begin":"","end":"","altitudeMode":"","tessellate":"-1","extrude":"0","visibility":"-1","drawOrder":"","icon":"","_id":42542425},"geometry":{"type":"Point","coordinates":[121.55433049872,25.04961224493]}}
,
{"type":"Feature","properties":{"Name":"臺北市私立金甌女中","description\/名稱":"臺北市私立金甌女中","description\/地址":"臺北市杭州南路二段1號","description\/電話":"2321-4765","timestamp":"","begin":"","end":"","altitudeMode":"","tessellate":"-1","extrude":"0","visibility":"-1","drawOrder":"","icon":"","_id":42542426},"geometry":{"type":"Point","coordinates":[121.52422068946,25.034902881663]}}
,
{"type":"Feature","properties":{"Name":"臺北市市立大安高工(進修學校)","description\/名稱":"臺北市市立大安高工(進修學校)","description\/地址":"臺北市復興南路二段52號","description\/電話":"2709-1630","timestamp":"","begin":"","end":"","altitudeMode":"","tessellate":"-1","extrude":"0","visibility":"-1","drawOrder":"","icon":"","_id":42542427},"geometry":{"type":"Point","coordinates":[121.54328434369,25.031945086535]}}
,
{"type":"Feature","properties":{"Name":"臺北市私立協和工商(進修學校)","description\/名稱":"臺北市私立協和工商(進修學校)","description\/地址":"臺北市忠孝東路五段790巷27號","description\/電話":"27265775","timestamp":"","begin":"","end":"","altitudeMode":"","tessellate":"-1","extrude":"0","visibility":"-1","drawOrder":"","icon":"","_id":42542428},"geometry":{"type":"Point","coordinates":[121.58346272137,25.042597651107]}}
,
{"type":"Feature","properties":{"Name":"臺北市私立華岡藝術學校","description\/名稱":"臺北市私立華岡藝術學校","description\/地址":"臺北市建業路73巷8號","description\/電話":"2861-2354","timestamp":"","begin":"","end":"","altitudeMode":"","tessellate":"-1","extrude":"0","visibility":"-1","drawOrder":"","icon":"","_id":42542429},"geometry":{"type":"Point","coordinates":[121.54893397668,25.137039607562]}}
,
{"type":"Feature","properties":{"Name":"大同高中","description\/名稱":"大同高中","description\/地址":"中山區中山北路3段40號","description\/電話":"2592-5252#2433","timestamp":"","begin":"","end":"","altitudeMode":"","tessellate":"-1","extrude":"0","visibility":"-1","drawOrder":"","icon":"","_id":42542430},"geometry":{"type":"Point","coordinates":[121.52219106847,25.066812057363]}}
,
{"type":"Feature","properties":{"Name":"臺北市萬華區大理國民小學","description\/名稱":"臺北市萬華區大理國民小學","description\/地址":"臺北市萬華區艋舺大道389號","description\/電話":"23042393","timestamp":"","begin":"","end":"","altitudeMode":"","tessellate":"-1","extrude":"0","visibility":"-1","drawOrder":"","icon":"","_id":42542431},"geometry":{"type":"Point","coordinates":[121.49380903963,25.031153751922]}}
,
{"type":"Feature","properties":{"Name":"臺北市南港區修德國民小學","description\/名稱":"臺北市南港區修德國民小學","description\/地址":"臺北市南港區東新街118巷86號","description\/電話":"27850983","timestamp":"","begin":"","end":"","altitudeMode":"","tessellate":"-1","extrude":"0","visibility":"-1","drawOrder":"","icon":"","_id":42542432},"geometry":{"type":"Point","coordinates":[121.5896208324,25.045519300153]}}
,
{"type":"Feature","properties":{"Name":"臺北市士林區平等國民小學","description\/名稱":"臺北市士林區平等國民小學","description\/地址":"臺北市士林區平菁街101號","description\/電話":"28613642","timestamp":"","begin":"","end":"","altitudeMode":"","tessellate":"-1","extrude":"0","visibility":"-1","drawOrder":"","icon":"","_id":42542433},"geometry":{"type":"Point","coordinates":[121.57629302721,25.129042240886]}}
,
{"type":"Feature","properties":{"Name":"小甜甜幼稚園","description\/名稱":"小甜甜幼稚園","description\/地址":"五常街51號1樓","description\/電話":"25052178","timestamp":"","begin":"","end":"","altitudeMode":"","tessellate":"-1","extrude":"0","visibility":"-1","drawOrder":"","icon":"","_id":42542434},"geometry":{"type":"Point","coordinates":[121.53939315355,25.064390152153]}}
,
{"type":"Feature","properties":{"Name":"臺北市市立西松高中","description\/名稱":"臺北市市立西松高中","description\/地址":"臺北市健康路325巷7號","description\/電話":"2767-4008","timestamp":"","begin":"","end":"","altitudeMode":"","tessellate":"-1","extrude":"0","visibility":"-1","drawOrder":"","icon":"","_id":42542435},"geometry":{"type":"Point","coordinates":[121.5670793394,25.055543947667]}}
,
{"type":"Feature","properties":{"Name":"臺北市信義區光復國民小學","description\/名稱":"臺北市信義區光復國民小學","description\/地址":"臺北市信義區光復南路271號","description\/電話":"27580626","timestamp":"","begin":"","end":"","altitudeMode":"","tessellate":"-1","extrude":"0","visibility":"-1","drawOrder":"","icon":"","_id":42542436},"geometry":{"type":"Point","coordinates":[121.55780134823,25.040216286995]}}
,
{"type":"Feature","properties":{"Name":"旭光幼稚園","description\/名稱":"旭光幼稚園","description\/地址":"三民路136巷80號","description\/電話":"27642982","timestamp":"","begin":"","end":"","altitudeMode":"","tessellate":"-1","extrude":"0","visibility":"-1","drawOrder":"","icon":"","_id":42542437},"geometry":{"type":"Point","coordinates":[121.56486462249,25.060647008287]}}
,
{"type":"Feature","properties":{"Name":"漢家幼稚園","description\/名稱":"漢家幼稚園","description\/地址":"南京東路4段133巷6弄2號","description\/電話":"27131091-3","timestamp":"","begin":"","end":"","altitudeMode":"","tessellate":"-1","extrude":"0","visibility":"-1","drawOrder":"","icon":"","_id":42542438},"geometry":{"type":"Point","coordinates":[121.55492394142,25.052742355685]}}
,
{"type":"Feature","properties":{"Name":"東和幼稚園","description\/名稱":"東和幼稚園","description\/地址":"仁愛路1段21號","description\/電話":"23412971","timestamp":"","begin":"","end":"","altitudeMode":"","tessellate":"-1","extrude":"0","visibility":"-1","drawOrder":"","icon":"","_id":42542439},"geometry":{"type":"Point","coordinates":[121.52309522458,25.039426868354]}}
,
{"type":"Feature","properties":{"Name":"興隆幼稚園","description\/名稱":"興隆幼稚園","description\/地址":"興隆路2段25巷20之3號","description\/電話":"29311879","timestamp":"","begin":"","end":"","altitudeMode":"","tessellate":"-1","extrude":"0","visibility":"-1","drawOrder":"","icon":"","_id":42542440},"geometry":{"type":"Point","coordinates":[121.54552083567,24.999614293066]}}
,
{"type":"Feature","properties":{"Name":"現代私塾幼稚園","description\/名稱":"現代私塾幼稚園","description\/地址":"中山北路6段290巷48號1樓","description\/電話":"28368002","timestamp":"","begin":"","end":"","altitudeMode":"","tessellate":"-1","extrude":"0","visibility":"-1","drawOrder":"","icon":"","_id":42542441},"geometry":{"type":"Point","coordinates":[121.52730445266,25.108648557033]}}
,
{"type":"Feature","properties":{"Name":"達義幼稚園","description\/名稱":"達義幼稚園","description\/地址":"致遠1路2段40巷11號1樓","description\/電話":"28270668","timestamp":"","begin":"","end":"","altitudeMode":"","tessellate":"-1","extrude":"0","visibility":"-1","drawOrder":"","icon":"","_id":42542442},"geometry":{"type":"Point","coordinates":[121.51470093468,25.112117066971]}}
,
{"type":"Feature","properties":{"Name":"臺北市士林區溪山國民小學","description\/名稱":"臺北市士林區溪山國民小學","description\/地址":"臺北市士林區至善路三段199號","description\/電話":"28413570","timestamp":"","begin":"","end":"","altitudeMode":"","tessellate":"-1","extrude":"0","visibility":"-1","drawOrder":"","icon":"","_id":42542443},"geometry":{"type":"Point","coordinates":[121.57959858084,25.11976322894]}}
,
{"type":"Feature","properties":{"Name":"文心幼稚園","description\/名稱":"文心幼稚園","description\/地址":"星雲街68巷8號","description\/電話":"27902507","timestamp":"","begin":"","end":"","altitudeMode":"","tessellate":"-1","extrude":"0","visibility":"-1","drawOrder":"","icon":"","_id":42542444},"geometry":{"type":"Point","coordinates":[121.59274621372,25.078603873953]}}
,
{"type":"Feature","properties":{"Name":"四維幼稚園","description\/名稱":"四維幼稚園","description\/地址":"和平東路3段1巷25號1樓","description\/電話":"27073718","timestamp":"","begin":"","end":"","altitudeMode":"","tessellate":"-1","extrude":"0","visibility":"-1","drawOrder":"","icon":"","_id":42542445},"geometry":{"type":"Point","coordinates":[121.54684725929,25.025634289687]}}
,
{"type":"Feature","properties":{"Name":"長安國中","description\/名稱":"長安國中","description\/地址":"臺北市中山區松江路70巷11號","description\/電話":"2511-2382","timestamp":"","begin":"","end":"","altitudeMode":"","tessellate":"-1","extrude":"0","visibility":"-1","drawOrder":"","icon":"","_id":42542446},"geometry":{"type":"Point","coordinates":[121.53190621827,25.049385461675]}}
,
{"type":"Feature","properties":{"Name":"桃源國中","description\/名稱":"桃源國中","description\/地址":"臺北市北投區中央北路4段48號","description\/電話":"2892-9633","timestamp":"","begin":"","end":"","altitudeMode":"","tessellate":"-1","extrude":"0","visibility":"-1","drawOrder":"","icon":"","_id":42542447},"geometry":{"type":"Point","coordinates":[121.47732794423,25.134675735119]}}
,
{"type":"Feature","properties":{"Name":"臺北市文山區永建國民小學","description\/名稱":"臺北市文山區永建國民小學","description\/地址":"臺北市文山區試院路二號","description\/電話":"22366024","timestamp":"","begin":"","end":"","altitudeMode":"","tessellate":"-1","extrude":"0","visibility":"-1","drawOrder":"","icon":"","_id":42542448},"geometry":{"type":"Point","coordinates":[121.5500383466,24.987573307156]}}
,
{"type":"Feature","properties":{"Name":"民族幼稚園","description\/名稱":"民族幼稚園","description\/地址":"新中街4巷6號1樓","description\/電話":"27612638","timestamp":"","begin":"","end":"","altitudeMode":"","tessellate":"-1","extrude":"0","visibility":"-1","drawOrder":"","icon":"","_id":42542449},"geometry":{"type":"Point","coordinates":[121.56094795849,25.057496717968]}}
,
{"type":"Feature","properties":{"Name":"小華幼稚園","description\/名稱":"小華幼稚園","description\/地址":"八德路4段245巷32弄22號","description\/電話":"27686589","timestamp":"","begin":"","end":"","altitudeMode":"","tessellate":"-1","extrude":"0","visibility":"-1","drawOrder":"","icon":"","_id":42542450},"geometry":{"type":"Point","coordinates":[121.56351643338,25.049960169219]}}
,
{"type":"Feature","properties":{"Name":"台灣聖公會 附設牧愛堂幼稚園","description\/名稱":"台灣聖公會 附設牧愛堂幼稚園","description\/地址":"中正路509號","description\/電話":"28823460","timestamp":"","begin":"","end":"","altitudeMode":"","tessellate":"-1","extrude":"0","visibility":"-1","drawOrder":"","icon":"","_id":42542451},"geometry":{"type":"Point","coordinates":[121.51752665801,25.091379553122]}}
,
{"type":"Feature","properties":{"Name":"忠心幼稚園(附設兒童托育中心)","description\/名稱":"忠心幼稚園(附設兒童托育中心)","description\/地址":"愛國東路116巷13號2樓","description\/電話":"23945788","timestamp":"","begin":"","end":"","altitudeMode":"","tessellate":"-1","extrude":"0","visibility":"-1","drawOrder":"","icon":"","_id":42542452},"geometry":{"type":"Point","coordinates":[121.52118914236,25.03210288845]}}
,
{"type":"Feature","properties":{"Name":"泰安幼稚園","description\/名稱":"泰安幼稚園","description\/地址":"中山北路5段829巷14號","description\/電話":"28314281","timestamp":"","begin":"","end":"","altitudeMode":"","tessellate":"-1","extrude":"0","visibility":"-1","drawOrder":"","icon":"","_id":42542453},"geometry":{"type":"Point","coordinates":[121.52508778732,25.101698409521]}}
,
{"type":"Feature","properties":{"Name":"龍華幼稚園","description\/名稱":"龍華幼稚園","description\/地址":"玉成街247號1樓","description\/電話":"27867166","timestamp":"","begin":"","end":"","altitudeMode":"","tessellate":"-1","extrude":"0","visibility":"-1","drawOrder":"","icon":"","_id":42542454},"geometry":{"type":"Point","coordinates":[121.58610672973,25.04293078627]}}
,
{"type":"Feature","properties":{"Name":"奧斯福爾幼稚園","description\/名稱":"奧斯福爾幼稚園","description\/地址":"康寧路3段16巷53號","description\/電話":"26344569","timestamp":"","begin":"","end":"","altitudeMode":"","tessellate":"-1","extrude":"0","visibility":"-1","drawOrder":"","icon":"","_id":42542455},"geometry":{"type":"Point","coordinates":[121.60840476112,25.071324178389]}}
,
{"type":"Feature","properties":{"Name":"臺北市市立中正高中","description\/名稱":"臺北市市立中正高中","description\/地址":"臺北市文林北路77號","description\/電話":"2823-4811#121","timestamp":"","begin":"","end":"","altitudeMode":"","tessellate":"-1","extrude":"0","visibility":"-1","drawOrder":"","icon":"","_id":42542456},"geometry":{"type":"Point","coordinates":[121.51654770293,25.104468342127]}}
,
{"type":"Feature","properties":{"Name":"介壽國中","description\/名稱":"介壽國中","description\/地址":"臺北市松山區延壽街401號","description\/電話":"2767-4496","timestamp":"","begin":"","end":"","altitudeMode":"","tessellate":"-1","extrude":"0","visibility":"-1","drawOrder":"","icon":"","_id":42542457},"geometry":{"type":"Point","coordinates":[121.55651015936,25.056378241467]}}
,
{"type":"Feature","properties":{"Name":"敦化國中","description\/名稱":"敦化國中","description\/地址":"臺北市松山區南京東路3段300號","description\/電話":"8771-7890","timestamp":"","begin":"","end":"","altitudeMode":"","tessellate":"-1","extrude":"0","visibility":"-1","drawOrder":"","icon":"","_id":42542458},"geometry":{"type":"Point","coordinates":[121.54677389497,25.051496110022]}}
,
{"type":"Feature","properties":{"Name":"大安國中","description\/名稱":"大安國中","description\/地址":"臺北市大安區大安路2段63號","description\/電話":"2755-7131","timestamp":"","begin":"","end":"","altitudeMode":"","tessellate":"-1","extrude":"0","visibility":"-1","drawOrder":"","icon":"","_id":42542459},"geometry":{"type":"Point","coordinates":[121.54617424403,25.030737310485]}}
,
{"type":"Feature","properties":{"Name":"明德國中","description\/名稱":"明德國中","description\/地址":"臺北市北投區明德路50號","description\/電話":"2823-2539","timestamp":"","begin":"","end":"","altitudeMode":"","tessellate":"-1","extrude":"0","visibility":"-1","drawOrder":"","icon":"","_id":42542460},"geometry":{"type":"Point","coordinates":[121.5182985744,25.107531362277]}}
,
{"type":"Feature","properties":{"Name":"臺北市信義區永春國民小學","description\/名稱":"臺北市信義區永春國民小學","description\/地址":"臺北市信義區松山路225巷48號","description\/電話":"27602009","timestamp":"","begin":"","end":"","altitudeMode":"","tessellate":"-1","extrude":"0","visibility":"-1","drawOrder":"","icon":"","_id":42542461},"geometry":{"type":"Point","coordinates":[121.57892949955,25.044670313307]}}
,
{"type":"Feature","properties":{"Name":"臺北市中正區南門國民小學","description\/名稱":"臺北市中正區南門國民小學","description\/地址":"臺北市中正區廣州街6號","description\/電話":"23317822","timestamp":"","begin":"","end":"","altitudeMode":"","tessellate":"-1","extrude":"0","visibility":"-1","drawOrder":"","icon":"","_id":42542462},"geometry":{"type":"Point","coordinates":[121.50907554379,25.035202853291]}}
,
{"type":"Feature","properties":{"Name":"臺北市大同區蓬萊國民小學","description\/名稱":"臺北市大同區蓬萊國民小學","description\/地址":"臺北市大同區寧夏路35號","description\/電話":"25552055","timestamp":"","begin":"","end":"","altitudeMode":"","tessellate":"-1","extrude":"0","visibility":"-1","drawOrder":"","icon":"","_id":42542463},"geometry":{"type":"Point","coordinates":[121.51554971548,25.056505476003]}}
,
{"type":"Feature","properties":{"Name":"臺北市文山區景美國民小學","description\/名稱":"臺北市文山區景美國民小學","description\/地址":"臺北市文山區景文街108號","description\/電話":"29332155","timestamp":"","begin":"","end":"","altitudeMode":"","tessellate":"-1","extrude":"0","visibility":"-1","drawOrder":"","icon":"","_id":42542464},"geometry":{"type":"Point","coordinates":[121.54077117711,24.989463633839]}}
,
{"type":"Feature","properties":{"Name":"臺北市文山區興華國民小學","description\/名稱":"臺北市文山區興華國民小學","description\/地址":"臺北市文山區興隆路三段125巷6號","description\/電話":"22305610","timestamp":"","begin":"","end":"","altitudeMode":"","tessellate":"-1","extrude":"0","visibility":"-1","drawOrder":"","icon":"","_id":42542465},"geometry":{"type":"Point","coordinates":[121.55865745455,24.998818679948]}}
,
{"type":"Feature","properties":{"Name":"臺北市內湖區文湖國民小學","description\/名稱":"臺北市內湖區文湖國民小學","description\/地址":"臺北市內湖區文湖街十五號","description\/電話":"27994445","timestamp":"","begin":"","end":"","altitudeMode":"","tessellate":"-1","extrude":"0","visibility":"-1","drawOrder":"","icon":"","_id":42542466},"geometry":{"type":"Point","coordinates":[121.56011119022,25.085804060963]}}
,
{"type":"Feature","properties":{"Name":"臺北市士林區福林國民小學","description\/名稱":"臺北市士林區福林國民小學","description\/地址":"臺北市士林區福志路75號","description\/電話":"2835-5222 ","timestamp":"","begin":"","end":"","altitudeMode":"","tessellate":"-1","extrude":"0","visibility":"-1","drawOrder":"","icon":"","_id":42542467},"geometry":{"type":"Point","coordinates":[121.52967104393,25.09866265619]}}
,
{"type":"Feature","properties":{"Name":"臺北市士林區雨聲國民小學","description\/名稱":"臺北市士林區雨聲國民小學","description\/地址":"臺北市士林區至誠路一段62巷70號","description\/電話":"28360645","timestamp":"","begin":"","end":"","altitudeMode":"","tessellate":"-1","extrude":"0","visibility":"-1","drawOrder":"","icon":"","_id":42542468},"geometry":{"type":"Point","coordinates":[121.53521756223,25.102653038708]}}
,
{"type":"Feature","properties":{"Name":"臺北市士林區富安國民小學","description\/名稱":"臺北市士林區富安國民小學","description\/地址":"臺北市士林區延平北路八段135號","description\/電話":"28103785","timestamp":"","begin":"","end":"","altitudeMode":"","tessellate":"-1","extrude":"0","visibility":"-1","drawOrder":"","icon":"","_id":42542469},"geometry":{"type":"Point","coordinates":[121.48242168994,25.105833653324]}}
,
{"type":"Feature","properties":{"Name":"臺北市北投區私立奎山國民小學","description\/名稱":"臺北市北投區私立奎山國民小學","description\/地址":"臺北市北投區明德路200號","description\/電話":"28205790","timestamp":"","begin":"","end":"","altitudeMode":"","tessellate":"-1","extrude":"0","visibility":"-1","drawOrder":"","icon":"","_id":42542470},"geometry":{"type":"Point","coordinates":[121.52204566846,25.112942789971]}}
,
{"type":"Feature","properties":{"Name":"郁欣幼稚園","description\/名稱":"郁欣幼稚園","description\/地址":"八德路3段106巷70號1樓","description\/電話":"25787470","timestamp":"","begin":"","end":"","altitudeMode":"","tessellate":"-1","extrude":"0","visibility":"-1","drawOrder":"","icon":"","_id":42542471},"geometry":{"type":"Point","coordinates":[121.55406149247,25.045981932145]}}
,
{"type":"Feature","properties":{"Name":"白鹿洞幼稚園","description\/名稱":"白鹿洞幼稚園","description\/地址":"南京東路5段23巷15弄2號","description\/電話":"27625962","timestamp":"","begin":"","end":"","altitudeMode":"","tessellate":"-1","extrude":"0","visibility":"-1","drawOrder":"","icon":"","_id":42542472},"geometry":{"type":"Point","coordinates":[121.55780553754,25.053080972585]}}
,
{"type":"Feature","properties":{"Name":"宣恩幼稚園","description\/名稱":"宣恩幼稚園","description\/地址":"吳興街214號","description\/電話":"27384278","timestamp":"","begin":"","end":"","altitudeMode":"","tessellate":"-1","extrude":"0","visibility":"-1","drawOrder":"","icon":"","_id":42542473},"geometry":{"type":"Point","coordinates":[121.56286103286,25.02784565207]}}
,
{"type":"Feature","properties":{"Name":"國立臺灣師範大學附設實驗幼稚園","description\/名稱":"國立臺灣師範大學附設實驗幼稚園","description\/地址":"師大路31號","description\/電話":"23638805","timestamp":"","begin":"","end":"","altitudeMode":"","tessellate":"-1","extrude":"0","visibility":"-1","drawOrder":"","icon":"","_id":42542474},"geometry":{"type":"Point","coordinates":[121.52858042089,25.024958136725]}}
,
{"type":"Feature","properties":{"Name":"惠真幼稚園","description\/名稱":"惠真幼稚園","description\/地址":"通化街143巷31號","description\/電話":"27383431","timestamp":"","begin":"","end":"","altitudeMode":"","tessellate":"-1","extrude":"0","visibility":"-1","drawOrder":"","icon":"","_id":42542475},"geometry":{"type":"Point","coordinates":[121.55580646707,25.028450284364]}}
,
{"type":"Feature","properties":{"Name":"五常幼稚園","description\/名稱":"五常幼稚園","description\/地址":"龍江路377巷24號1樓","description\/電話":"25025750","timestamp":"","begin":"","end":"","altitudeMode":"","tessellate":"-1","extrude":"0","visibility":"-1","drawOrder":"","icon":"","_id":42542476},"geometry":{"type":"Point","coordinates":[121.5423706073,25.064680064754]}}
,
{"type":"Feature","properties":{"Name":"博愛幼稚園","description\/名稱":"博愛幼稚園","description\/地址":"武成街28巷9弄2號1樓","description\/電話":"23072749","timestamp":"","begin":"","end":"","altitudeMode":"","tessellate":"-1","extrude":"0","visibility":"-1","drawOrder":"","icon":"","_id":42542477},"geometry":{"type":"Point","coordinates":[121.49523862576,25.019011225058]}}
,
{"type":"Feature","properties":{"Name":"幼幼幼稚園","description\/名稱":"幼幼幼稚園","description\/地址":"景明街84巷2弄8號","description\/電話":"29314669","timestamp":"","begin":"","end":"","altitudeMode":"","tessellate":"-1","extrude":"0","visibility":"-1","drawOrder":"","icon":"","_id":42542478},"geometry":{"type":"Point","coordinates":[121.54051929116,25.000729410898]}}
,
{"type":"Feature","properties":{"Name":"立湖幼稚園","description\/名稱":"立湖幼稚園","description\/地址":"金龍路222巷1弄1號","description\/電話":"27909111","timestamp":"","begin":"","end":"","altitudeMode":"","tessellate":"-1","extrude":"0","visibility":"-1","drawOrder":"","icon":"","_id":42542479},"geometry":{"type":"Point","coordinates":[121.58628398549,25.088156028151]}}
,
{"type":"Feature","properties":{"Name":"蘭雅幼稚園","description\/名稱":"蘭雅幼稚園","description\/地址":"德行東路200號1樓","description\/電話":"28311580","timestamp":"","begin":"","end":"","altitudeMode":"","tessellate":"-1","extrude":"0","visibility":"-1","drawOrder":"","icon":"","_id":42542480},"geometry":{"type":"Point","coordinates":[121.53148208134,25.108675947226]}}
,
{"type":"Feature","properties":{"Name":"衛斯理幼稚園","description\/名稱":"衛斯理幼稚園","description\/地址":"中央北路3段188號1樓","description\/電話":"28922691","timestamp":"","begin":"","end":"","altitudeMode":"","tessellate":"-1","extrude":"0","visibility":"-1","drawOrder":"","icon":"","_id":42542481},"geometry":{"type":"Point","coordinates":[121.48141448209,25.136829998756]}}
,
{"type":"Feature","properties":{"Name":"臺北市私立稻江高商","description\/名稱":"臺北市私立稻江高商","description\/地址":"臺北市民權西路225巷24號","description\/電話":"2591-2001","timestamp":"","begin":"","end":"","altitudeMode":"","tessellate":"-1","extrude":"0","visibility":"-1","drawOrder":"","icon":"","_id":42542482},"geometry":{"type":"Point","coordinates":[121.51202121914,25.064312160748]}}
,
{"type":"Feature","properties":{"Name":"臺北市私立喬治工商(進修學校)","description\/名稱":"臺北市私立喬治工商(進修學校)","description\/地址":"臺北市基隆路二段172號","description\/電話":"2736-6515","timestamp":"","begin":"","end":"","altitudeMode":"","tessellate":"-1","extrude":"0","visibility":"-1","drawOrder":"","icon":"","_id":42542483},"geometry":{"type":"Point","coordinates":[121.55475305669,25.026530179734]}}
,
{"type":"Feature","properties":{"Name":"臺北市市立松山工農","description\/名稱":"臺北市市立松山工農","description\/地址":"臺北市忠孝東路五段236巷15號","description\/電話":"2722-6616","timestamp":"","begin":"","end":"","altitudeMode":"","tessellate":"-1","extrude":"0","visibility":"-1","drawOrder":"","icon":"","_id":42542484},"geometry":{"type":"Point","coordinates":[121.5720224433,25.039826626482]}}
,
{"type":"Feature","properties":{"Name":"臺北市私立十信高中","description\/名稱":"臺北市私立十信高中","description\/地址":"臺北市北投路2段55號","description\/電話":"2892-1166","timestamp":"","begin":"","end":"","altitudeMode":"","tessellate":"-1","extrude":"0","visibility":"-1","drawOrder":"","icon":"","_id":42542485},"geometry":{"type":"Point","coordinates":[121.4967045894,25.133593808407]}}
,
{"type":"Feature","properties":{"Name":"臺北市市立內湖高工","description\/名稱":"臺北市市立內湖高工","description\/地址":"臺北市內湖路一段520號","description\/電話":"2657-4874","timestamp":"","begin":"","end":"","altitudeMode":"","tessellate":"-1","extrude":"0","visibility":"-1","drawOrder":"","icon":"","_id":42542486},"geometry":{"type":"Point","coordinates":[121.57542761855,25.079710087458]}}
,
{"type":"Feature","properties":{"Name":"景文高中","description\/名稱":"景文高中","description\/地址":"文山區保儀路127號","description\/電話":"2939-0310#806","timestamp":"","begin":"","end":"","altitudeMode":"","tessellate":"-1","extrude":"0","visibility":"-1","drawOrder":"","icon":"","_id":42542487},"geometry":{"type":"Point","coordinates":[121.56737592382,24.985340928145]}}
,
{"type":"Feature","properties":{"Name":"臺北市內湖區明湖國民小學","description\/名稱":"臺北市內湖區明湖國民小學","description\/地址":"臺北市內湖區康寧路三段105號","description\/電話":"26320173","timestamp":"","begin":"","end":"","altitudeMode":"","tessellate":"-1","extrude":"0","visibility":"-1","drawOrder":"","icon":"","_id":42542488},"geometry":{"type":"Point","coordinates":[121.61055314719,25.071072722456]}}
,
{"type":"Feature","properties":{"Name":"臺北市士林區蘭雅國民小學","description\/名稱":"臺北市士林區蘭雅國民小學","description\/地址":"臺北市士林區磺溪街57號","description\/電話":"28358475","timestamp":"","begin":"","end":"","altitudeMode":"","tessellate":"-1","extrude":"0","visibility":"-1","drawOrder":"","icon":"","_id":42542489},"geometry":{"type":"Point","coordinates":[121.52312859939,25.10837896647]}}
,
{"type":"Feature","properties":{"Name":"惠元幼稚園","description\/名稱":"惠元幼稚園","description\/地址":"民權東路3段106巷3弄14號","description\/電話":"27155365","timestamp":"","begin":"","end":"","altitudeMode":"","tessellate":"-1","extrude":"0","visibility":"-1","drawOrder":"","icon":"","_id":42542490},"geometry":{"type":"Point","coordinates":[121.54711133608,25.061311516502]}}
,
{"type":"Feature","properties":{"Name":"威利幼稚園","description\/名稱":"威利幼稚園","description\/地址":"通化街239之1號1樓","description\/電話":"87333860","timestamp":"","begin":"","end":"","altitudeMode":"","tessellate":"-1","extrude":"0","visibility":"-1","drawOrder":"","icon":"","_id":42542491},"geometry":{"type":"Point","coordinates":[121.55317149855,25.025835217284]}}
,
{"type":"Feature","properties":{"Name":"新民國中","description\/名稱":"新民國中","description\/地址":"臺北市北投區新民路10號","description\/電話":"2897-9001","timestamp":"","begin":"","end":"","altitudeMode":"","tessellate":"-1","extrude":"0","visibility":"-1","drawOrder":"","icon":"","_id":42542492},"geometry":{"type":"Point","coordinates":[121.50653365694,25.138850118608]}}
,
{"type":"Feature","properties":{"Name":"臺北市士林區雨農國民小學","description\/名稱":"臺北市士林區雨農國民小學","description\/地址":"臺北市士林區忠義街1號","description\/電話":"28319401","timestamp":"","begin":"","end":"","altitudeMode":"","tessellate":"-1","extrude":"0","visibility":"-1","drawOrder":"","icon":"","_id":42542493},"geometry":{"type":"Point","coordinates":[121.52991244796,25.105262452294]}}
,
{"type":"Feature","properties":{"Name":"臺北市市立成功中學","description\/名稱":"臺北市市立成功中學","description\/地址":"臺北市濟南路一段71號","description\/電話":"2321-8621#201","timestamp":"","begin":"","end":"","altitudeMode":"","tessellate":"-1","extrude":"0","visibility":"-1","drawOrder":"","icon":"","_id":42542494},"geometry":{"type":"Point","coordinates":[121.52379236768,25.042366929526]}}
,
{"type":"Feature","properties":{"Name":"臺北市市立萬芳高中","description\/名稱":"臺北市市立萬芳高中","description\/地址":"臺北市興隆路三段115巷1號","description\/電話":"2230-9585#100","timestamp":"","begin":"","end":"","altitudeMode":"","tessellate":"-1","extrude":"0","visibility":"-1","drawOrder":"","icon":"","_id":42542495},"geometry":{"type":"Point","coordinates":[121.55876334662,25.00053194735]}}
,
{"type":"Feature","properties":{"Name":"天琪幼稚園","description\/名稱":"天琪幼稚園","description\/地址":"吳興街600巷83弄16號","description\/電話":"27233079","timestamp":"","begin":"","end":"","altitudeMode":"","tessellate":"-1","extrude":"0","visibility":"-1","drawOrder":"","icon":"","_id":42542496},"geometry":{"type":"Point","coordinates":[121.57170426293,25.019046603524]}}
,
{"type":"Feature","properties":{"Name":"柏克萊幼稚園","description\/名稱":"柏克萊幼稚園","description\/地址":"中和街455巷1弄25號1樓","description\/電話":"28931236","timestamp":"","begin":"","end":"","altitudeMode":"","tessellate":"-1","extrude":"0","visibility":"-1","drawOrder":"","icon":"","_id":42542497},"geometry":{"type":"Point","coordinates":[121.49736693701,25.14413379218]}}
,
{"type":"Feature","properties":{"Name":"長春幼稚園","description\/名稱":"長春幼稚園","description\/地址":"興安街91號3樓","description\/電話":"25044617","timestamp":"","begin":"","end":"","altitudeMode":"","tessellate":"-1","extrude":"0","visibility":"-1","drawOrder":"","icon":"","_id":42542498},"geometry":{"type":"Point","coordinates":[121.54320473644,25.056166126434]}}
,
{"type":"Feature","properties":{"Name":"臺北市萬華區華江國民小學","description\/名稱":"臺北市萬華區華江國民小學","description\/地址":"臺北市萬華區環河南路二段250巷42弄2號","description\/電話":"23022503","timestamp":"","begin":"","end":"","altitudeMode":"","tessellate":"-1","extrude":"0","visibility":"-1","drawOrder":"","icon":"","_id":42542499},"geometry":{"type":"Point","coordinates":[121.49117969226,25.034049526555]}}
,
{"type":"Feature","properties":{"Name":"懷恩幼稚園","description\/名稱":"懷恩幼稚園","description\/地址":"新生南路3段90號","description\/電話":"23636593","timestamp":"","begin":"","end":"","altitudeMode":"","tessellate":"-1","extrude":"0","visibility":"-1","drawOrder":"","icon":"","_id":42542500},"geometry":{"type":"Point","coordinates":[121.53317671598,25.017754909313]}}
,
{"type":"Feature","properties":{"Name":"世仁幼稚園","description\/名稱":"世仁幼稚園","description\/地址":"柳州街41號","description\/電話":"23615142","timestamp":"","begin":"","end":"","altitudeMode":"","tessellate":"-1","extrude":"0","visibility":"-1","drawOrder":"","icon":"","_id":42542501},"geometry":{"type":"Point","coordinates":[121.50536995092,25.038447430466]}}
,
{"type":"Feature","properties":{"Name":"臺北市市立松山高級商業職業學校","description\/名稱":"臺北市市立松山高級商業職業學校","description\/地址":"臺北市松山路655號","description\/電話":"2726-1118","timestamp":"","begin":"","end":"","altitudeMode":"","tessellate":"-1","extrude":"0","visibility":"-1","drawOrder":"","icon":"","_id":42542502},"geometry":{"type":"Point","coordinates":[121.58014550941,25.034803948087]}}
,
{"type":"Feature","properties":{"Name":"北政國中","description\/名稱":"北政國中","description\/地址":"臺北市文山區指南路3段2巷14號","description\/電話":"2393-3651","timestamp":"","begin":"","end":"","altitudeMode":"","tessellate":"-1","extrude":"0","visibility":"-1","drawOrder":"","icon":"","_id":42542503},"geometry":{"type":"Point","coordinates":[121.57825310588,24.984861216011]}}
,
{"type":"Feature","properties":{"Name":"福安國中","description\/名稱":"福安國中","description\/地址":"臺北市士林區延平北路7段250號","description\/電話":"2810-8766","timestamp":"","begin":"","end":"","altitudeMode":"","tessellate":"-1","extrude":"0","visibility":"-1","drawOrder":"","icon":"","_id":42542504},"geometry":{"type":"Point","coordinates":[121.4873779521,25.103323718133]}}
,
{"type":"Feature","properties":{"Name":"三民國中","description\/名稱":"三民國中","description\/地址":"臺北市內湖區民權東路6段45號","description\/電話":"2792-4772","timestamp":"","begin":"","end":"","altitudeMode":"","tessellate":"-1","extrude":"0","visibility":"-1","drawOrder":"","icon":"","_id":42542505},"geometry":{"type":"Point","coordinates":[121.58624852012,25.069141239289]}}
,
{"type":"Feature","properties":{"Name":"臺北市大同區大同國民小學","description\/名稱":"臺北市大同區大同國民小學","description\/地址":"臺北市大同區大龍街51號","description\/電話":"25850281","timestamp":"","begin":"","end":"","altitudeMode":"","tessellate":"-1","extrude":"0","visibility":"-1","drawOrder":"","icon":"","_id":42542506},"geometry":{"type":"Point","coordinates":[121.51608448169,25.064763298709]}}
,
{"type":"Feature","properties":{"Name":"延平高中","description\/名稱":"延平高中","description\/地址":"大安區建國南路一段275號","description\/電話":"2707-1478#102","timestamp":"","begin":"","end":"","altitudeMode":"","tessellate":"-1","extrude":"0","visibility":"-1","drawOrder":"","icon":"","_id":42542507},"geometry":{"type":"Point","coordinates":[121.53833796429,25.036311081365]}}
,
{"type":"Feature","properties":{"Name":"至善國中","description\/名稱":"至善國中","description\/地址":"臺北市士林區至善路2段360號","description\/電話":"2841-1350","timestamp":"","begin":"","end":"","altitudeMode":"","tessellate":"-1","extrude":"0","visibility":"-1","drawOrder":"","icon":"","_id":42542508},"geometry":{"type":"Point","coordinates":[121.55545910483,25.103538398422]}}
,
{"type":"Feature","properties":{"Name":"臺北市信義區博愛國民小學","description\/名稱":"臺北市信義區博愛國民小學","description\/地址":"臺北市信義區松仁路95巷20號","description\/電話":"87802760","timestamp":"","begin":"","end":"","altitudeMode":"","tessellate":"-1","extrude":"0","visibility":"-1","drawOrder":"","icon":"","_id":42542509},"geometry":{"type":"Point","coordinates":[121.57111504687,25.036417362295]}}
,
{"type":"Feature","properties":{"Name":"臺北市大同區雙蓮國民小學","description\/名稱":"臺北市大同區雙蓮國民小學","description\/地址":"臺北市大同區錦西街51號","description\/電話":"25534840","timestamp":"","begin":"","end":"","altitudeMode":"","tessellate":"-1","extrude":"0","visibility":"-1","drawOrder":"","icon":"","_id":42542510},"geometry":{"type":"Point","coordinates":[121.51665357394,25.060090344066]}}
,
{"type":"Feature","properties":{"Name":"臺北市萬華區東園國民小學","description\/名稱":"臺北市萬華區東園國民小學","description\/地址":"臺北市萬華區東園街195號","description\/電話":"23018044","timestamp":"","begin":"","end":"","altitudeMode":"","tessellate":"-1","extrude":"0","visibility":"-1","drawOrder":"","icon":"","_id":42542511},"geometry":{"type":"Point","coordinates":[121.49784603615,25.023114794572]}}
,
{"type":"Feature","properties":{"Name":"臺北市士林區社子國民小學","description\/名稱":"臺北市士林區社子國民小學","description\/地址":"臺北市士林區延平北路6段308號","description\/電話":"28132763","timestamp":"","begin":"","end":"","altitudeMode":"","tessellate":"-1","extrude":"0","visibility":"-1","drawOrder":"","icon":"","_id":42542512},"geometry":{"type":"Point","coordinates":[121.50292411743,25.089774233035]}}
,
{"type":"Feature","properties":{"Name":"育華幼稚園","description\/名稱":"育華幼稚園","description\/地址":"八德路3段12巷51弄44之2號","description\/電話":"25706450","timestamp":"","begin":"","end":"","altitudeMode":"","tessellate":"-1","extrude":"0","visibility":"-1","drawOrder":"","icon":"","_id":42542513},"geometry":{"type":"Point","coordinates":[121.5520820025,25.04584510626]}}
,
{"type":"Feature","properties":{"Name":"柏齡幼稚園","description\/名稱":"柏齡幼稚園","description\/地址":"北安路805巷4弄5號地下","description\/電話":"25327634","timestamp":"","begin":"","end":"","altitudeMode":"","tessellate":"-1","extrude":"0","visibility":"-1","drawOrder":"","icon":"","_id":42542514},"geometry":{"type":"Point","coordinates":[121.55456825336,25.086106788964]}}
,
{"type":"Feature","properties":{"Name":"功文成長幼稚園","description\/名稱":"功文成長幼稚園","description\/地址":"哈密街59巷79號1樓","description\/電話":"25948254","timestamp":"","begin":"","end":"","altitudeMode":"","tessellate":"-1","extrude":"0","visibility":"-1","drawOrder":"","icon":"","_id":42542515},"geometry":{"type":"Point","coordinates":[121.51580095053,25.075844511105]}}
,
{"type":"Feature","properties":{"Name":"十大幼稚園","description\/名稱":"十大幼稚園","description\/地址":"天母東路92號1樓","description\/電話":"28749113","timestamp":"","begin":"","end":"","altitudeMode":"","tessellate":"-1","extrude":"0","visibility":"-1","drawOrder":"","icon":"","_id":42542516},"geometry":{"type":"Point","coordinates":[121.5360403023,25.117963815582]}}
,
{"type":"Feature","properties":{"Name":"大業幼稚園","description\/名稱":"大業幼稚園","description\/地址":"大興街24巷4弄7號","description\/電話":"28946530","timestamp":"","begin":"","end":"","altitudeMode":"","tessellate":"-1","extrude":"0","visibility":"-1","drawOrder":"","icon":"","_id":42542517},"geometry":{"type":"Point","coordinates":[121.4983781754,25.129222592185]}}
,
{"type":"Feature","properties":{"Name":"福祿貝爾幼稚園","description\/名稱":"福祿貝爾幼稚園","description\/地址":"內湖路1段49號","description\/電話":"26270327","timestamp":"","begin":"","end":"","altitudeMode":"","tessellate":"-1","extrude":"0","visibility":"-1","drawOrder":"","icon":"","_id":42542518},"geometry":{"type":"Point","coordinates":[121.55956887277,25.085101464509]}}
,
{"type":"Feature","properties":{"Name":"欣光幼稚園","description\/名稱":"欣光幼稚園","description\/地址":"福港街259巷4號1樓","description\/電話":"28822302","timestamp":"","begin":"","end":"","altitudeMode":"","tessellate":"-1","extrude":"0","visibility":"-1","drawOrder":"","icon":"","_id":42542519},"geometry":{"type":"Point","coordinates":[121.51793490539,25.083777289764]}}
,
{"type":"Feature","properties":{"Name":"臺北市文山區興德國民小學","description\/名稱":"臺北市文山區興德國民小學","description\/地址":"臺北市文山區興隆路二段235號","description\/電話":"29330948","timestamp":"","begin":"","end":"","altitudeMode":"","tessellate":"-1","extrude":"0","visibility":"-1","drawOrder":"","icon":"","_id":42542520},"geometry":{"type":"Point","coordinates":[121.55084940635,25.001647083437]}}
,
{"type":"Feature","properties":{"Name":"臺北市文山區明道國民小學","description\/名稱":"臺北市文山區明道國民小學","description\/地址":"臺北市文山區木柵路2段138巷61號","description\/電話":"29385113","timestamp":"","begin":"","end":"","altitudeMode":"","tessellate":"-1","extrude":"0","visibility":"-1","drawOrder":"","icon":"","_id":42542521},"geometry":{"type":"Point","coordinates":[121.56259243688,24.987297718461]}}
,
{"type":"Feature","properties":{"Name":"育安幼稚園","description\/名稱":"育安幼稚園","description\/地址":"中和街502巷2弄11號","description\/電話":"28929002","timestamp":"","begin":"","end":"","altitudeMode":"","tessellate":"-1","extrude":"0","visibility":"-1","drawOrder":"","icon":"","_id":42542522},"geometry":{"type":"Point","coordinates":[121.49487987865,25.145551279098]}}
,
{"type":"Feature","properties":{"Name":"臺北市市立建國中學","description\/名稱":"臺北市市立建國中學","description\/地址":"臺北市南海路56號","description\/電話":"2303-5463","timestamp":"","begin":"","end":"","altitudeMode":"","tessellate":"-1","extrude":"0","visibility":"-1","drawOrder":"","icon":"","_id":42542523},"geometry":{"type":"Point","coordinates":[121.51215923413,25.0311832096]}}
,
{"type":"Feature","properties":{"Name":"強恕高中","description\/名稱":"強恕高中","description\/地址":"中正區汀州路2段143號","description\/電話":"2365-6576#116","timestamp":"","begin":"","end":"","altitudeMode":"","tessellate":"-1","extrude":"0","visibility":"-1","drawOrder":"","icon":"","_id":42542524},"geometry":{"type":"Point","coordinates":[121.52014917136,25.024836776404]}}
,
{"type":"Feature","properties":{"Name":"木柵國中","description\/名稱":"木柵國中","description\/地址":"臺北市文山區木柵路3段102巷12號","description\/電話":"2939-3031","timestamp":"","begin":"","end":"","altitudeMode":"","tessellate":"-1","extrude":"0","visibility":"-1","drawOrder":"","icon":"","_id":42542525},"geometry":{"type":"Point","coordinates":[121.56766801342,24.987446256645]}}
,
{"type":"Feature","properties":{"Name":"東湖國中","description\/名稱":"東湖國中","description\/地址":"臺北市內湖區康樂街131號","description\/電話":"2633-0373","timestamp":"","begin":"","end":"","altitudeMode":"","tessellate":"-1","extrude":"0","visibility":"-1","drawOrder":"","icon":"","_id":42542526},"geometry":{"type":"Point","coordinates":[121.61948546176,25.072241773781]}}
,
{"type":"Feature","properties":{"Name":"明湖國中","description\/名稱":"明湖國中","description\/地址":"臺北市康寧路3段60號","description\/電話":"2632-0616","timestamp":"","begin":"","end":"","altitudeMode":"","tessellate":"-1","extrude":"0","visibility":"-1","drawOrder":"","icon":"","_id":42542527},"geometry":{"type":"Point","coordinates":[121.61067639076,25.0706180649]}}
,
{"type":"Feature","properties":{"Name":"臺北市松山區松山國民小學","description\/名稱":"臺北市松山區松山國民小學","description\/地址":"臺北市松山區八德路四段七四六號","description\/電話":"27661997","timestamp":"","begin":"","end":"","altitudeMode":"","tessellate":"-1","extrude":"0","visibility":"-1","drawOrder":"","icon":"","_id":42542528},"geometry":{"type":"Point","coordinates":[121.57892060062,25.051104415773]}}
,
{"type":"Feature","properties":{"Name":"臺北市松山區三民國民小學","description\/名稱":"臺北市松山區三民國民小學","description\/地址":"臺北市松山區民權東路五段一號","description\/電話":"27613341","timestamp":"","begin":"","end":"","altitudeMode":"","tessellate":"-1","extrude":"0","visibility":"-1","drawOrder":"","icon":"","_id":42542529},"geometry":{"type":"Point","coordinates":[121.56425987228,25.063246807792]}}
,
{"type":"Feature","properties":{"Name":"臺北市中山區中山國民小學","description\/名稱":"臺北市中山區中山國民小學","description\/地址":"臺北市中山區民權東路一段69號","description\/電話":"25929964","timestamp":"","begin":"","end":"","altitudeMode":"","tessellate":"-1","extrude":"0","visibility":"-1","drawOrder":"","icon":"","_id":42542530},"geometry":{"type":"Point","coordinates":[121.52629604836,25.062886085108]}}
,
{"type":"Feature","properties":{"Name":"臺北市中山區永安國民小學","description\/名稱":"臺北市中山區永安國民小學","description\/地址":"臺北市中山區明水路397巷19弄1號","description\/電話":"85091863","timestamp":"","begin":"","end":"","altitudeMode":"","tessellate":"-1","extrude":"0","visibility":"-1","drawOrder":"","icon":"","_id":42542531},"geometry":{"type":"Point","coordinates":[121.54937280344,25.07870760857]}}
,
{"type":"Feature","properties":{"Name":"臺北市萬華區雙園國民小學","description\/名稱":"臺北市萬華區雙園國民小學","description\/地址":"臺北市萬華區莒光路315號","description\/電話":"23064375","timestamp":"","begin":"","end":"","altitudeMode":"","tessellate":"-1","extrude":"0","visibility":"-1","drawOrder":"","icon":"","_id":42542532},"geometry":{"type":"Point","coordinates":[121.49815806891,25.030928115624]}}
,
{"type":"Feature","properties":{"Name":"臺北市文山區興隆國民小學","description\/名稱":"臺北市文山區興隆國民小學","description\/地址":"臺北市文山區福興路二號","description\/電話":"29304341","timestamp":"","begin":"","end":"","altitudeMode":"","tessellate":"-1","extrude":"0","visibility":"-1","drawOrder":"","icon":"","_id":42542533},"geometry":{"type":"Point","coordinates":[121.55189700919,25.002390057434]}}
,
{"type":"Feature","properties":{"Name":"臺北市文山區指南國民小學","description\/名稱":"臺北市文山區指南國民小學","description\/地址":"臺北市文山區指南路3段38巷5-2號","description\/電話":"29398540","timestamp":"","begin":"","end":"","altitudeMode":"","tessellate":"-1","extrude":"0","visibility":"-1","drawOrder":"","icon":"","_id":42542534},"geometry":{"type":"Point","coordinates":[121.58364496321,24.976377996149]}}
,
{"type":"Feature","properties":{"Name":"臺北市文山區萬芳國民小學","description\/名稱":"臺北市文山區萬芳國民小學","description\/地址":"臺北市文山區萬和街一號","description\/電話":"22301009","timestamp":"","begin":"","end":"","altitudeMode":"","tessellate":"-1","extrude":"0","visibility":"-1","drawOrder":"","icon":"","_id":42542535},"geometry":{"type":"Point","coordinates":[121.56755461216,25.001288005978]}}
,
{"type":"Feature","properties":{"Name":"臺北市大安區私立立人國民小學","description\/名稱":"臺北市大安區私立立人國民小學","description\/地址":"臺北市大安區安和路二段99號","description\/電話":"27353517","timestamp":"","begin":"","end":"","altitudeMode":"","tessellate":"-1","extrude":"0","visibility":"-1","drawOrder":"","icon":"","_id":42542536},"geometry":{"type":"Point","coordinates":[121.55187333778,25.029775768688]}}
,
{"type":"Feature","properties":{"Name":"維多利亞幼稚園","description\/名稱":"維多利亞幼稚園","description\/地址":"民權東路3段160巷19弄17號","description\/電話":"27183809","timestamp":"","begin":"","end":"","altitudeMode":"","tessellate":"-1","extrude":"0","visibility":"-1","drawOrder":"","icon":"","_id":42542537},"geometry":{"type":"Point","coordinates":[121.54824813429,25.060011017482]}}
,
{"type":"Feature","properties":{"Name":"育正幼稚園","description\/名稱":"育正幼稚園","description\/地址":"富陽街72巷2號","description\/電話":"27333651","timestamp":"","begin":"","end":"","altitudeMode":"","tessellate":"-1","extrude":"0","visibility":"-1","drawOrder":"","icon":"","_id":42542538},"geometry":{"type":"Point","coordinates":[121.55604042684,25.021713281077]}}
,
{"type":"Feature","properties":{"Name":"長青幼稚園","description\/名稱":"長青幼稚園","description\/地址":"樂業街41巷17號","description\/電話":"27327056","timestamp":"","begin":"","end":"","altitudeMode":"","tessellate":"-1","extrude":"0","visibility":"-1","drawOrder":"","icon":"","_id":42542539},"geometry":{"type":"Point","coordinates":[121.55043885104,25.023176839218]}}
,
{"type":"Feature","properties":{"Name":"聯華幼稚園","description\/名稱":"聯華幼稚園","description\/地址":"南海路110之1號1樓","description\/電話":"23078855","timestamp":"","begin":"","end":"","altitudeMode":"","tessellate":"-1","extrude":"0","visibility":"-1","drawOrder":"","icon":"","_id":42542540},"geometry":{"type":"Point","coordinates":[121.50795791413,25.027710022212]}}
,
{"type":"Feature","properties":{"Name":"太原幼稚園","description\/名稱":"太原幼稚園","description\/地址":"迪化街2段243巷2號","description\/電話":"25942628","timestamp":"","begin":"","end":"","altitudeMode":"","tessellate":"-1","extrude":"0","visibility":"-1","drawOrder":"","icon":"","_id":42542541},"geometry":{"type":"Point","coordinates":[121.51267903894,25.071687896029]}}
,
{"type":"Feature","properties":{"Name":"育仁幼稚園","description\/名稱":"育仁幼稚園","description\/地址":"興寧街70號","description\/電話":"23040131","timestamp":"","begin":"","end":"","altitudeMode":"","tessellate":"-1","extrude":"0","visibility":"-1","drawOrder":"","icon":"","_id":42542542},"geometry":{"type":"Point","coordinates":[121.49954482085,25.032211544733]}}
,
{"type":"Feature","properties":{"Name":"慈愛幼稚園","description\/名稱":"慈愛幼稚園","description\/地址":"寶興街140巷27號1樓","description\/電話":"23093209","timestamp":"","begin":"","end":"","altitudeMode":"","tessellate":"-1","extrude":"0","visibility":"-1","drawOrder":"","icon":"","_id":42542543},"geometry":{"type":"Point","coordinates":[121.49376120336,25.023890120792]}}
,
{"type":"Feature","properties":{"Name":"民祥幼稚園","description\/名稱":"民祥幼稚園","description\/地址":"麗山街338巷3號","description\/電話":"27975414","timestamp":"","begin":"","end":"","altitudeMode":"","tessellate":"-1","extrude":"0","visibility":"-1","drawOrder":"","icon":"","_id":42542544},"geometry":{"type":"Point","coordinates":[121.5732318677,25.082475771743]}}
,
{"type":"Feature","properties":{"Name":"北大內湖幼稚園","description\/名稱":"北大內湖幼稚園","description\/地址":"內湖路2段334之1號1樓","description\/電話":"27901110","timestamp":"","begin":"","end":"","altitudeMode":"","tessellate":"-1","extrude":"0","visibility":"-1","drawOrder":"","icon":"","_id":42542545},"geometry":{"type":"Point","coordinates":[121.58895107575,25.081530687731]}}
,
{"type":"Feature","properties":{"Name":"天鵝堡幼稚園","description\/名稱":"天鵝堡幼稚園","description\/地址":"至善路2段280-1號1樓","description\/電話":"27841618","timestamp":"","begin":"","end":"","altitudeMode":"","tessellate":"-1","extrude":"0","visibility":"-1","drawOrder":"","icon":"","_id":42542546},"geometry":{"type":"Point","coordinates":[121.55198650772,25.100620498643]}}
,
{"type":"Feature","properties":{"Name":"臺北市私立南華高中職業進修學校","description\/名稱":"臺北市私立南華高中職業進修學校","description\/地址":"臺北市汀州路三段58號","description\/電話":"2368-6818","timestamp":"","begin":"","end":"","altitudeMode":"","tessellate":"-1","extrude":"0","visibility":"-1","drawOrder":"","icon":"","_id":42542547},"geometry":{"type":"Point","coordinates":[121.53126916047,25.01545993692]}}
,
{"type":"Feature","properties":{"Name":"臺北市私立惇敘工商","description\/名稱":"臺北市私立惇敘工商","description\/地址":"臺北市泉源路221號","description\/電話":"2891-2630","timestamp":"","begin":"","end":"","altitudeMode":"","tessellate":"-1","extrude":"0","visibility":"-1","drawOrder":"","icon":"","_id":42542548},"geometry":{"type":"Point","coordinates":[121.5270340959,25.144486588009]}}
,
{"type":"Feature","properties":{"Name":"臺北市立教育大學","description\/名稱":"臺北市立教育大學","description\/地址":"臺北市愛國西路1號","description\/電話":"2871-8288","timestamp":"","begin":"","end":"","altitudeMode":"","tessellate":"-1","extrude":"0","visibility":"-1","drawOrder":"","icon":"","_id":42542549},"geometry":{"type":"Point","coordinates":[121.51356189799,25.035532063027]}}
,
{"type":"Feature","properties":{"Name":"臺北市市立百齡高中","description\/名稱":"臺北市市立百齡高中","description\/地址":"臺北市承德路四段177號","description\/電話":"2883-1568#601","timestamp":"","begin":"","end":"","altitudeMode":"","tessellate":"-1","extrude":"0","visibility":"-1","drawOrder":"","icon":"","_id":42542550},"geometry":{"type":"Point","coordinates":[121.5230298147,25.086986518154]}}
,
{"type":"Feature","properties":{"Name":"心安幼稚園","description\/名稱":"心安幼稚園","description\/地址":"南京東路5段291巷5弄9號","description\/電話":"27689396","timestamp":"","begin":"","end":"","altitudeMode":"","tessellate":"-1","extrude":"0","visibility":"-1","drawOrder":"","icon":"","_id":42542551},"geometry":{"type":"Point","coordinates":[121.56661924648,25.052003519742]}}
,
{"type":"Feature","properties":{"Name":"景美國中","description\/名稱":"景美國中","description\/地址":"臺北市文山區景中街27號","description\/電話":"8935-3130","timestamp":"","begin":"","end":"","altitudeMode":"","tessellate":"-1","extrude":"0","visibility":"-1","drawOrder":"","icon":"","_id":42542552},"geometry":{"type":"Point","coordinates":[121.54292409882,24.992986550849]}}
,
{"type":"Feature","properties":{"Name":"臺北市大同區永樂國民小學","description\/名稱":"臺北市大同區永樂國民小學","description\/地址":"臺北市大同區延平北路二段二六六號","description\/電話":"25574656","timestamp":"","begin":"","end":"","altitudeMode":"","tessellate":"-1","extrude":"0","visibility":"-1","drawOrder":"","icon":"","_id":42542553},"geometry":{"type":"Point","coordinates":[121.5111155231,25.061665557704]}}
,
{"type":"Feature","properties":{"Name":"臺北市北投區文林國民小學","description\/名稱":"臺北市北投區文林國民小學","description\/地址":"臺北市北投區文林北路155號","description\/電話":"28235854","timestamp":"","begin":"","end":"","altitudeMode":"","tessellate":"-1","extrude":"0","visibility":"-1","drawOrder":"","icon":"","_id":42542554},"geometry":{"type":"Point","coordinates":[121.51471820658,25.105900720324]}}
,
{"type":"Feature","properties":{"Name":"大雅幼稚園","description\/名稱":"大雅幼稚園","description\/地址":"延吉街241巷2弄11號1樓","description\/電話":"27099200","timestamp":"","begin":"","end":"","altitudeMode":"","tessellate":"-1","extrude":"0","visibility":"-1","drawOrder":"","icon":"","_id":42542555},"geometry":{"type":"Point","coordinates":[121.55601822866,25.035610618528]}}
,
{"type":"Feature","properties":{"Name":"新上幼稚園","description\/名稱":"新上幼稚園","description\/地址":"內湖路1段285巷69弄16號1樓","description\/電話":"27990391","timestamp":"","begin":"","end":"","altitudeMode":"","tessellate":"-1","extrude":"0","visibility":"-1","drawOrder":"","icon":"","_id":42542556},"geometry":{"type":"Point","coordinates":[121.56791489088,25.084966900268]}}
,
{"type":"Feature","properties":{"Name":"衛理女中","description\/名稱":"衛理女中","description\/地址":"士林區至善路2段321號","description\/電話":"2841-1487#101","timestamp":"","begin":"","end":"","altitudeMode":"","tessellate":"-1","extrude":"0","visibility":"-1","drawOrder":"","icon":"","_id":42542557},"geometry":{"type":"Point","coordinates":[121.55224730412,25.101696031428]}}
,
{"type":"Feature","properties":{"Name":"南門國中","description\/名稱":"南門國中","description\/地址":"臺北市廣州街6號","description\/電話":"2314-2775","timestamp":"","begin":"","end":"","altitudeMode":"","tessellate":"-1","extrude":"0","visibility":"-1","drawOrder":"","icon":"","_id":42542558},"geometry":{"type":"Point","coordinates":[121.50907554379,25.035202853291]}}
,
{"type":"Feature","properties":{"Name":"信愛幼稚園","description\/名稱":"信愛幼稚園","description\/地址":"重慶北路3段223巷47號","description\/電話":"25948855","timestamp":"","begin":"","end":"","altitudeMode":"","tessellate":"-1","extrude":"0","visibility":"-1","drawOrder":"","icon":"","_id":42542559},"geometry":{"type":"Point","coordinates":[121.51557439802,25.070551746813]}}
,
{"type":"Feature","properties":{"Name":"樹德幼稚園","description\/名稱":"樹德幼稚園","description\/地址":"東新街80巷11弄2號","description\/電話":"27854601","timestamp":"","begin":"","end":"","altitudeMode":"","tessellate":"-1","extrude":"0","visibility":"-1","drawOrder":"","icon":"","_id":42542560},